{
"type": "FeatureCollection",
"crs": { "type": "name", "properties": { "name": "urn:ogc:def:crs:OGC:1.3:CRS84" } },
"features": [
{ "type": "Feature", "properties": { "OBJECTID": 157, "FID_": 1736, "Store_Name": "ALDI  10", "Longitude": -87.723663, "Latitude": 41.811489, "Address": "4501 S Pulaski Rd", "Address_Li": null, "City": "Chicago", "State": "IL", "Zip5": 60632, "Zip4": 4035, "County": "COOK", "Type": "Supermarket" }, "geometry": { "type": "Point", "coordinates": [ -87.723663, 41.811489 ] } },
{ "type": "Feature", "properties": { "OBJECTID": 158, "FID_": 1741, "Store_Name": "ALDI  26", "Longitude": -87.674263, "Latitude": 41.928886, "Address": "2600 N Clybourn Ave", "Address_Li": null, "City": "Chicago", "State": "IL", "Zip5": 60614, "Zip4": 1004, "County": "COOK", "Type": "Supermarket" }, "geometry": { "type": "Point", "coordinates": [ -87.674263, 41.928886 ] } },
{ "type": "Feature", "properties": { "OBJECTID": 162, "FID_": 676, "Store_Name": "ALDI  28", "Longitude": -87.703896, "Latitude": 41.803101, "Address": "4934 S Kedzie Ave", "Address_Li": null, "City": "Chicago", "State": "IL", "Zip5": 60632, "Zip4": 3008, "County": "COOK", "Type": "Supermarket" }, "geometry": { "type": "Point", "coordinates": [ -87.703896, 41.803101 ] } },
{ "type": "Feature", "properties": { "OBJECTID": 188, "FID_": 2137, "Store_Name": "ALDI  30", "Longitude": -87.727654, "Latitude": 41.928169, "Address": "4030 W Wrightwood Ave", "Address_Li": null, "City": "Chicago", "State": "IL", "Zip5": 60639, "Zip4": 2125, "County": "COOK", "Type": "Supermarket" }, "geometry": { "type": "Point", "coordinates": [ -87.727654, 41.928169 ] } },
{ "type": "Feature", "properties": { "OBJECTID": 193, "FID_": 789, "Store_Name": "ALDI  53", "Longitude": -87.75737, "Latitude": 41.796425, "Address": "5775 S Archer Ave", "Address_Li": null, "City": "Chicago", "State": "IL", "Zip5": 60638, "Zip4": 1653, "County": "COOK", "Type": "Supermarket" }, "geometry": { "type": "Point", "coordinates": [ -87.75737, 41.796425 ] } },
{ "type": "Feature", "properties": { "OBJECTID": 199, "FID_": 625, "Store_Name": "ALDI  58", "Longitude": -87.689941, "Latitude": 41.961258, "Address": "2431 W Montrose Ave", "Address_Li": null, "City": "Chicago", "State": "IL", "Zip5": 60618, "Zip4": 1605, "County": "COOK", "Type": "Supermarket" }, "geometry": { "type": "Point", "coordinates": [ -87.689941, 41.961258 ] } },
{ "type": "Feature", "properties": { "OBJECTID": 216, "FID_": 2129, "Store_Name": "ALDI  6", "Longitude": -87.72805, "Latitude": 41.971878, "Address": "5001 N Pulaski Rd", "Address_Li": null, "City": "Chicago", "State": "IL", "Zip5": 60630, "Zip4": 2706, "County": "COOK", "Type": "Supermarket" }, "geometry": { "type": "Point", "coordinates": [ -87.72805, 41.971878 ] } },
{ "type": "Feature", "properties": { "OBJECTID": 217, "FID_": 706, "Store_Name": "ALDI  62", "Longitude": -87.699608, "Latitude": 41.994373, "Address": "6220 N California Ave", "Address_Li": null, "City": "Chicago", "State": "IL", "Zip5": 60659, "Zip4": 2608, "County": "COOK", "Type": "Supermarket" }, "geometry": { "type": "Point", "coordinates": [ -87.699608, 41.994373 ] } },
{ "type": "Feature", "properties": { "OBJECTID": 218, "FID_": 2160, "Store_Name": "ALDI  64", "Longitude": -87.682343, "Latitude": 41.913616, "Address": "1767 N Milwaukee Ave", "Address_Li": null, "City": "Chicago", "State": "IL", "Zip5": 60647, "Zip4": 5423, "County": "COOK", "Type": "Supermarket" }, "geometry": { "type": "Point", "coordinates": [ -87.682343, 41.913616 ] } },
{ "type": "Feature", "properties": { "OBJECTID": 219, "FID_": 1858, "Store_Name": "ALDI  83", "Longitude": -87.741028, "Latitude": 41.741074, "Address": "8333 S Cicero Ave", "Address_Li": null, "City": "Chicago", "State": "IL", "Zip5": 60652, "Zip4": 3562, "County": "COOK", "Type": "Supermarket" }, "geometry": { "type": "Point", "coordinates": [ -87.741028, 41.741074 ] } },
{ "type": "Feature", "properties": { "OBJECTID": 220, "FID_": 1881, "Store_Name": "ALDI  90", "Longitude": -87.766312, "Latitude": 41.931793, "Address": "2828 N Central Ave", "Address_Li": null, "City": "Chicago", "State": "IL", "Zip5": 60634, "Zip4": 5306, "County": "COOK", "Type": "Supermarket" }, "geometry": { "type": "Point", "coordinates": [ -87.766312, 41.931793 ] } },
{ "type": "Feature", "properties": { "OBJECTID": 222, "FID_": 1753, "Store_Name": "ALDI  91", "Longitude": -87.721626, "Latitude": 41.88073, "Address": "3835 W Madison St", "Address_Li": null, "City": "Chicago", "State": "IL", "Zip5": 60624, "Zip4": 2335, "County": "COOK", "Type": "Supermarket" }, "geometry": { "type": "Point", "coordinates": [ -87.721626, 41.88073 ] } },
{ "type": "Feature", "properties": { "OBJECTID": 223, "FID_": 708, "Store_Name": "ALDI  92", "Longitude": -87.640762, "Latitude": 41.779881, "Address": "620 W 63rd St", "Address_Li": null, "City": "Chicago", "State": "IL", "Zip5": 60621, "Zip4": 2012, "County": "COOK", "Type": "Supermarket" }, "geometry": { "type": "Point", "coordinates": [ -87.640762, 41.779881 ] } },
{ "type": "Feature", "properties": { "OBJECTID": 229, "FID_": 1862, "Store_Name": "ALDI  95", "Longitude": -87.567421, "Latitude": 41.722546, "Address": "2333 E 95th St", "Address_Li": null, "City": "Chicago", "State": "IL", "Zip5": 60617, "Zip4": 4806, "County": "COOK", "Type": "Supermarket" }, "geometry": { "type": "Point", "coordinates": [ -87.567421, 41.722546 ] } },
{ "type": "Feature", "properties": { "OBJECTID": 231, "FID_": 587, "Store_Name": "Aldi 03", "Longitude": -87.65625, "Latitude": 41.963585, "Address": "4500 N Broadway St", "Address_Li": null, "City": "Chicago", "State": "IL", "Zip5": 60640, "Zip4": 5602, "County": "COOK", "Type": "Supermarket" }, "geometry": { "type": "Point", "coordinates": [ -87.65625, 41.963585 ] } },
{ "type": "Feature", "properties": { "OBJECTID": 233, "FID_": 153, "Store_Name": "Aldi 08", "Longitude": -87.624748, "Latitude": 41.761047, "Address": "7345 S State St", "Address_Li": null, "City": "Chicago", "State": "IL", "Zip5": 60619, "Zip4": 1622, "County": "COOK", "Type": "Supermarket" }, "geometry": { "type": "Point", "coordinates": [ -87.624748, 41.761047 ] } },
{ "type": "Feature", "properties": { "OBJECTID": 234, "FID_": 1948, "Store_Name": "Aldi 14", "Longitude": -87.765144, "Latitude": 41.867374, "Address": "5629 W Fillmore St", "Address_Li": null, "City": "Chicago", "State": "IL", "Zip5": 60644, "Zip4": 5504, "County": "COOK", "Type": "Supermarket" }, "geometry": { "type": "Point", "coordinates": [ -87.765144, 41.867374 ] } },
{ "type": "Feature", "properties": { "OBJECTID": 235, "FID_": 498, "Store_Name": "Aldi 16", "Longitude": -87.736298, "Latitude": 41.906757, "Address": "1440 N Kostner Ave", "Address_Li": null, "City": "Chicago", "State": "IL", "Zip5": 60651, "Zip4": 1602, "County": "COOK", "Type": "Supermarket" }, "geometry": { "type": "Point", "coordinates": [ -87.736298, 41.906757 ] } },
{ "type": "Feature", "properties": { "OBJECTID": 239, "FID_": 1743, "Store_Name": "ALDI 2", "Longitude": -87.743011, "Latitude": 41.931564, "Address": "4627 W Diversey Ave", "Address_Li": null, "City": "Chicago", "State": "IL", "Zip5": 60639, "Zip4": 1828, "County": "COOK", "Type": "Supermarket" }, "geometry": { "type": "Point", "coordinates": [ -87.743011, 41.931564 ] } },
{ "type": "Feature", "properties": { "OBJECTID": 248, "FID_": 229, "Store_Name": "Aldi 26", "Longitude": -87.525749, "Latitude": 41.703789, "Address": "10532 S Indianapolis Ave", "Address_Li": null, "City": "Chicago", "State": "IL", "Zip5": 60617, "Zip4": 6355, "County": "COOK", "Type": "Supermarket" }, "geometry": { "type": "Point", "coordinates": [ -87.525749, 41.703789 ] } },
{ "type": "Feature", "properties": { "OBJECTID": 250, "FID_": 17, "Store_Name": "Aldi 30", "Longitude": -87.704926, "Latitude": 41.838482, "Address": "3030 S Kedzie Ave", "Address_Li": null, "City": "Chicago", "State": "IL", "Zip5": 60623, "Zip4": 4713, "County": "COOK", "Type": "Supermarket" }, "geometry": { "type": "Point", "coordinates": [ -87.704926, 41.838482 ] } },
{ "type": "Feature", "properties": { "OBJECTID": 253, "FID_": 464, "Store_Name": "Aldi 32", "Longitude": -87.654701, "Latitude": 41.914635, "Address": "1836 N Clybourn Ave", "Address_Li": null, "City": "Chicago", "State": "IL", "Zip5": 60614, "Zip4": 4902, "County": "COOK", "Type": "Supermarket" }, "geometry": { "type": "Point", "coordinates": [ -87.654701, 41.914635 ] } },
{ "type": "Feature", "properties": { "OBJECTID": 254, "FID_": 199, "Store_Name": "Aldi 34", "Longitude": -87.787956, "Latitude": 41.923725, "Address": "6520 W Fullerton Ave", "Address_Li": null, "City": "Chicago", "State": "IL", "Zip5": 60707, "Zip4": 0, "County": "COOK", "Type": "Supermarket" }, "geometry": { "type": "Point", "coordinates": [ -87.787956, 41.923725 ] } },
{ "type": "Feature", "properties": { "OBJECTID": 258, "FID_": 2109, "Store_Name": "ALDI 4", "Longitude": -87.706619, "Latitude": 41.895607, "Address": "800 N Kedzie Ave", "Address_Li": "Ste 122", "City": "Chicago", "State": "IL", "Zip5": 60651, "Zip4": 4100, "County": "COOK", "Type": "Supermarket" }, "geometry": { "type": "Point", "coordinates": [ -87.706619, 41.895607 ] } },
{ "type": "Feature", "properties": { "OBJECTID": 260, "FID_": 59, "Store_Name": "Aldi 47", "Longitude": -87.663055, "Latitude": 41.808659, "Address": "1508 W 47th St", "Address_Li": null, "City": "Chicago", "State": "IL", "Zip5": 60609, "Zip4": 3236, "County": "COOK", "Type": "Supermarket" }, "geometry": { "type": "Point", "coordinates": [ -87.663055, 41.808659 ] } },
{ "type": "Feature", "properties": { "OBJECTID": 263, "FID_": 1769, "Store_Name": "ALDI 62", "Longitude": -87.669441, "Latitude": 41.852219, "Address": "1739 W Cermak Rd", "Address_Li": null, "City": "Chicago", "State": "IL", "Zip5": 60608, "Zip4": 4315, "County": "COOK", "Type": "Supermarket" }, "geometry": { "type": "Point", "coordinates": [ -87.669441, 41.852219 ] } },
{ "type": "Feature", "properties": { "OBJECTID": 264, "FID_": 437, "Store_Name": "Aldi 65", "Longitude": -87.660355, "Latitude": 41.994961, "Address": "6221 N Broadway St", "Address_Li": null, "City": "Chicago", "State": "IL", "Zip5": 60660, "Zip4": 1902, "County": "COOK", "Type": "Supermarket" }, "geometry": { "type": "Point", "coordinates": [ -87.660355, 41.994961 ] } },
{ "type": "Feature", "properties": { "OBJECTID": 265, "FID_": 325, "Store_Name": "ALDI 66", "Longitude": -87.605751, "Latitude": 41.774281, "Address": "6621 S Cottage Grove Ave", "Address_Li": null, "City": "Chicago", "State": "IL", "Zip5": 60637, "Zip4": 4126, "County": "COOK", "Type": "Supermarket" }, "geometry": { "type": "Point", "coordinates": [ -87.605751, 41.774281 ] } },
{ "type": "Feature", "properties": { "OBJECTID": 266, "FID_": 467, "Store_Name": "Aldi 70", "Longitude": -87.663513, "Latitude": 41.754902, "Address": "7627 S Ashland Ave", "Address_Li": null, "City": "Chicago", "State": "IL", "Zip5": 60620, "Zip4": 4248, "County": "COOK", "Type": "Supermarket" }, "geometry": { "type": "Point", "coordinates": [ -87.663513, 41.754902 ] } },
{ "type": "Feature", "properties": { "OBJECTID": 267, "FID_": 2157, "Store_Name": "ALDI 79", "Longitude": -87.587952, "Latitude": 41.753151, "Address": "7800 S South Chicago Ave", "Address_Li": null, "City": "Chicago", "State": "IL", "Zip5": 60619, "Zip4": 2724, "County": "COOK", "Type": "Supermarket" }, "geometry": { "type": "Point", "coordinates": [ -87.587952, 41.753151 ] } },
{ "type": "Feature", "properties": { "OBJECTID": 269, "FID_": 465, "Store_Name": "Aldi 82", "Longitude": -87.71022, "Latitude": 41.939346, "Address": "3320 W Belmont Ave", "Address_Li": null, "City": "Chicago", "State": "IL", "Zip5": 60618, "Zip4": 5513, "County": "COOK", "Type": "Supermarket" }, "geometry": { "type": "Point", "coordinates": [ -87.71022, 41.939346 ] } },
{ "type": "Feature", "properties": { "OBJECTID": 270, "FID_": 690, "Store_Name": "Aldi 88", "Longitude": -87.632027, "Latitude": 41.739433, "Address": "8500 S Holland Rd", "Address_Li": null, "City": "Chicago", "State": "IL", "Zip5": 60620, "Zip4": 1338, "County": "COOK", "Type": "Supermarket" }, "geometry": { "type": "Point", "coordinates": [ -87.632027, 41.739433 ] } },
{ "type": "Feature", "properties": { "OBJECTID": 271, "FID_": 1841, "Store_Name": "ALDI 94", "Longitude": -87.683693, "Latitude": 41.784275, "Address": "6025 S Western Ave", "Address_Li": null, "City": "Chicago", "State": "IL", "Zip5": 60636, "Zip4": 2019, "County": "COOK", "Type": "Supermarket" }, "geometry": { "type": "Point", "coordinates": [ -87.683693, 41.784275 ] } },
{ "type": "Feature", "properties": { "OBJECTID": 279, "FID_": 2144, "Store_Name": "ALDI 96", "Longitude": -87.64328, "Latitude": 41.685017, "Address": "821 W 115th St", "Address_Li": null, "City": "Chicago", "State": "IL", "Zip5": 60643, "Zip4": 4618, "County": "COOK", "Type": "Supermarket" }, "geometry": { "type": "Point", "coordinates": [ -87.64328, 41.685017 ] } },
{ "type": "Feature", "properties": { "OBJECTID": 301, "FID_": 1652, "Store_Name": "American Supermarket Inc.", "Longitude": -87.717339, "Latitude": 41.931938, "Address": "3600 W Diversey Ave", "Address_Li": null, "City": "Chicago", "State": "IL", "Zip5": 60647, "Zip4": 1126, "County": "COOK", "Type": "Supermarket" }, "geometry": { "type": "Point", "coordinates": [ -87.717339, 41.931938 ] } },
{ "type": "Feature", "properties": { "OBJECTID": 325, "FID_": 934, "Store_Name": "Anthony Supermarket", "Longitude": -87.694725, "Latitude": 41.828411, "Address": "3557 S California Ave", "Address_Li": "Floor 1st", "City": "Chicago", "State": "IL", "Zip5": 60632, "Zip4": 0, "County": "COOK", "Type": "Supermarket" }, "geometry": { "type": "Point", "coordinates": [ -87.694725, 41.828411 ] } },
{ "type": "Feature", "properties": { "OBJECTID": 358, "FID_": 961, "Store_Name": "Aswaq Kan Zaman 1", "Longitude": -87.807297, "Latitude": 41.951797, "Address": "3952 N Harlem Ave", "Address_Li": null, "City": "Chicago", "State": "IL", "Zip5": 60634, "Zip4": 2219, "County": "COOK", "Type": "Grocery Store" }, "geometry": { "type": "Point", "coordinates": [ -87.807297, 41.951797 ] } },
{ "type": "Feature", "properties": { "OBJECTID": 403, "FID_": 1533, "Store_Name": "B & B Supermarket", "Longitude": -87.701225, "Latitude": 41.939411, "Address": "2924 W Belmont Ave", "Address_Li": null, "City": "Chicago", "State": "IL", "Zip5": 60618, "Zip4": 5804, "County": "COOK", "Type": "Supermarket" }, "geometry": { "type": "Point", "coordinates": [ -87.701225, 41.939411 ] } },
{ "type": "Feature", "properties": { "OBJECTID": 456, "FID_": 456, "Store_Name": "African SuperMarket & Liquors, Inc", "Longitude": -87.730339, "Latitude": 41.880699, "Address": "4156 W Madison St", "Address_Li": null, "City": "Chicago", "State": "IL", "Zip5": 60624, "Zip4": 2303, "County": "COOK", "Type": "Supermarket" }, "geometry": { "type": "Point", "coordinates": [ -87.730339, 41.880699 ] } },
{ "type": "Feature", "properties": { "OBJECTID": 470, "FID_": 1364, "Store_Name": "Big Apple Finer Foods", "Longitude": -87.639946, "Latitude": 41.924801, "Address": "2345 N Clark St", "Address_Li": null, "City": "Chicago", "State": "IL", "Zip5": 60614, "Zip4": 3492, "County": "COOK", "Type": "Grocery Store" }, "geometry": { "type": "Point", "coordinates": [ -87.639946, 41.924801 ] } },
{ "type": "Feature", "properties": { "OBJECTID": 507, "FID_": 1824, "Store_Name": "BROADWAY SUPERMARKET, INC.", "Longitude": -87.659645, "Latitude": 41.971039, "Address": "4879 N Broadway St", "Address_Li": null, "City": "Chicago", "State": "IL", "Zip5": 60640, "Zip4": 3603, "County": "COOK", "Type": "Supermarket" }, "geometry": { "type": "Point", "coordinates": [ -87.659645, 41.971039 ] } },
{ "type": "Feature", "properties": { "OBJECTID": 515, "FID_": 429, "Store_Name": "Busy Bee Supermarket", "Longitude": -87.664436, "Latitude": 41.791142, "Address": "5659 S Ashland Ave", "Address_Li": null, "City": "Chicago", "State": "IL", "Zip5": 60636, "Zip4": 1313, "County": "COOK", "Type": "Supermarket" }, "geometry": { "type": "Point", "coordinates": [ -87.664436, 41.791142 ] } },
{ "type": "Feature", "properties": { "OBJECTID": 524, "FID_": 38, "Store_Name": "CARNITAS Y SUPERMERCARDO ELGIGANTE", "Longitude": -87.756271, "Latitude": 41.925976, "Address": "2500 N Laramie Ave", "Address_Li": null, "City": "Chicago", "State": "IL", "Zip5": 60639, "Zip4": 2422, "County": "COOK", "Type": "Supermarket" }, "geometry": { "type": "Point", "coordinates": [ -87.756271, 41.925976 ] } },
{ "type": "Feature", "properties": { "OBJECTID": 532, "FID_": 1478, "Store_Name": "Cermak Food Market", "Longitude": -87.699181, "Latitude": 41.851879, "Address": "2900 W Cermak Rd", "Address_Li": null, "City": "Chicago", "State": "IL", "Zip5": 60623, "Zip4": 3401, "County": "COOK", "Type": "Grocery Store" }, "geometry": { "type": "Point", "coordinates": [ -87.699181, 41.851879 ] } },
{ "type": "Feature", "properties": { "OBJECTID": 533, "FID_": 223, "Store_Name": "Cermak Food Mart", "Longitude": -87.728607, "Latitude": 41.851643, "Address": "4156 W Cermak Rd", "Address_Li": null, "City": "Chicago", "State": "IL", "Zip5": 60623, "Zip4": 2837, "County": "COOK", "Type": "Grocery Store" }, "geometry": { "type": "Point", "coordinates": [ -87.728607, 41.851643 ] } },
{ "type": "Feature", "properties": { "OBJECTID": 534, "FID_": 20, "Store_Name": "CERMAK PRODUCE", "Longitude": -87.723328, "Latitude": 41.798019, "Address": "5220 S Pulaski Rd", "Address_Li": null, "City": "Chicago", "State": "IL", "Zip5": 60632, "Zip4": 4222, "County": "COOK", "Type": "Grocery Store" }, "geometry": { "type": "Point", "coordinates": [ -87.723328, 41.798019 ] } },
{ "type": "Feature", "properties": { "OBJECTID": 535, "FID_": 1226, "Store_Name": "Cermak Produce", "Longitude": -87.680244, "Latitude": 42.002426, "Address": "6623 N Damen Ave", "Address_Li": null, "City": "Chicago", "State": "IL", "Zip5": 60645, "Zip4": 5101, "County": "COOK", "Type": "Grocery Store" }, "geometry": { "type": "Point", "coordinates": [ -87.680244, 42.002426 ] } },
{ "type": "Feature", "properties": { "OBJECTID": 537, "FID_": 1568, "Store_Name": "Cermak Produce", "Longitude": -87.727089, "Latitude": 41.931816, "Address": "4000 W Diversey Ave", "Address_Li": null, "City": "Chicago", "State": "IL", "Zip5": 60639, "Zip4": 2102, "County": "COOK", "Type": "Grocery Store" }, "geometry": { "type": "Point", "coordinates": [ -87.727089, 41.931816 ] } },
{ "type": "Feature", "properties": { "OBJECTID": 539, "FID_": 1813, "Store_Name": "CERMAK PRODUCE #2, INC.", "Longitude": -87.736328, "Latitude": 41.916996, "Address": "4401 W Armitage Ave", "Address_Li": null, "City": "Chicago", "State": "IL", "Zip5": 60639, "Zip4": 3523, "County": "COOK", "Type": "Grocery Store" }, "geometry": { "type": "Point", "coordinates": [ -87.736328, 41.916996 ] } },
{ "type": "Feature", "properties": { "OBJECTID": 541, "FID_": 1814, "Store_Name": "CERMAK PRODUCE #3, INC.", "Longitude": -87.746628, "Latitude": 41.931583, "Address": "4800 W Diversey Ave", "Address_Li": null, "City": "Chicago", "State": "IL", "Zip5": 60639, "Zip4": 1704, "County": "COOK", "Type": "Grocery Store" }, "geometry": { "type": "Point", "coordinates": [ -87.746628, 41.931583 ] } },
{ "type": "Feature", "properties": { "OBJECTID": 542, "FID_": 1865, "Store_Name": "CERMAK PRODUCE #4", "Longitude": -87.695114, "Latitude": 41.910221, "Address": "2701 W North Ave", "Address_Li": null, "City": "Chicago", "State": "IL", "Zip5": 60647, "Zip4": 5236, "County": "COOK", "Type": "Grocery Store" }, "geometry": { "type": "Point", "coordinates": [ -87.695114, 41.910221 ] } },
{ "type": "Feature", "properties": { "OBJECTID": 543, "FID_": 1907, "Store_Name": "CERMAK PRODUCE #5", "Longitude": -87.675484, "Latitude": 41.831631, "Address": "3435 S Archer Ave", "Address_Li": null, "City": "Chicago", "State": "IL", "Zip5": 60608, "Zip4": 6836, "County": "COOK", "Type": "Grocery Store" }, "geometry": { "type": "Point", "coordinates": [ -87.675484, 41.831631 ] } },
{ "type": "Feature", "properties": { "OBJECTID": 544, "FID_": 2058, "Store_Name": "CERMAK PRODUCE #6 INC.", "Longitude": -87.708191, "Latitude": 41.958241, "Address": "4234 N Kedzie Ave", "Address_Li": null, "City": "Chicago", "State": "IL", "Zip5": 60618, "Zip4": 2402, "County": "COOK", "Type": "Grocery Store" }, "geometry": { "type": "Point", "coordinates": [ -87.708191, 41.958241 ] } },
{ "type": "Feature", "properties": { "OBJECTID": 545, "FID_": 673, "Store_Name": "Cermak Produce No. 12 Inc", "Longitude": -87.646263, "Latitude": 41.838833, "Address": "3033 S Halsted St", "Address_Li": null, "City": "Chicago", "State": "IL", "Zip5": 60608, "Zip4": 5804, "County": "COOK", "Type": "Grocery Store" }, "geometry": { "type": "Point", "coordinates": [ -87.646263, 41.838833 ] } },
{ "type": "Feature", "properties": { "OBJECTID": 546, "FID_": 2067, "Store_Name": "CERMAK PRODUCE NO. 7, INC.", "Longitude": -87.668793, "Latitude": 41.85223, "Address": "1711 W Cermak Rd", "Address_Li": null, "City": "Chicago", "State": "IL", "Zip5": 60608, "Zip4": 4315, "County": "COOK", "Type": "Grocery Store" }, "geometry": { "type": "Point", "coordinates": [ -87.668793, 41.85223 ] } },
{ "type": "Feature", "properties": { "OBJECTID": 549, "FID_": 146, "Store_Name": "Cermak Produce No. 9 Inc.", "Longitude": -87.70826, "Latitude": 41.844463, "Address": "3311 W 26th St", "Address_Li": null, "City": "Chicago", "State": "IL", "Zip5": 60623, "Zip4": 4036, "County": "COOK", "Type": "Grocery Store" }, "geometry": { "type": "Point", "coordinates": [ -87.70826, 41.844463 ] } },
{ "type": "Feature", "properties": { "OBJECTID": 559, "FID_": 2064, "Store_Name": "Charlies Supermarket Inc", "Longitude": -87.702316, "Latitude": 41.961185, "Address": "2941 W Montrose Ave", "Address_Li": null, "City": "Chicago", "State": "IL", "Zip5": 60618, "Zip4": 1414, "County": "COOK", "Type": "Supermarket" }, "geometry": { "type": "Point", "coordinates": [ -87.702316, 41.961185 ] } },
{ "type": "Feature", "properties": { "OBJECTID": 576, "FID_": 1886, "Store_Name": "Joong Boo Market", "Longitude": -87.712517, "Latitude": 41.941982, "Address": "3333 N Kimball Ave", "Address_Li": null, "City": "Chicago", "State": "IL", "Zip5": 60618, "Zip4": 5503, "County": "COOK", "Type": "Grocery Store" }, "geometry": { "type": "Point", "coordinates": [ -87.712517, 41.941982 ] } },
{ "type": "Feature", "properties": { "OBJECTID": 581, "FID_": 220, "Store_Name": "Chicago Produce", "Longitude": -87.715973, "Latitude": 41.968407, "Address": "3500 W Lawrence Ave", "Address_Li": null, "City": "Chicago", "State": "IL", "Zip5": 60625, "Zip4": 5612, "County": "COOK", "Type": "Grocery Store" }, "geometry": { "type": "Point", "coordinates": [ -87.715973, 41.968407 ] } },
{ "type": "Feature", "properties": { "OBJECTID": 586, "FID_": 2059, "Store_Name": "CHINATOWN MARKET, INC.", "Longitude": -87.632622, "Latitude": 41.853886, "Address": "2121 S Archer Ave", "Address_Li": null, "City": "Chicago", "State": "IL", "Zip5": 60616, "Zip4": 1513, "County": "COOK", "Type": "Grocery Store" }, "geometry": { "type": "Point", "coordinates": [ -87.632622, 41.853886 ] } },
{ "type": "Feature", "properties": { "OBJECTID": 595, "FID_": 2091, "Store_Name": "CITY FRESH MARKET", "Longitude": -87.709839, "Latitude": 41.997364, "Address": "3201 W Devon Ave", "Address_Li": null, "City": "Chicago", "State": "IL", "Zip5": 60659, "Zip4": 1306, "County": "COOK", "Type": "Grocery Store" }, "geometry": { "type": "Point", "coordinates": [ -87.709839, 41.997364 ] } },
{ "type": "Feature", "properties": { "OBJECTID": 596, "FID_": 575, "Store_Name": "City Fresh Metra Market", "Longitude": -87.641136, "Latitude": 41.883968, "Address": "131 N Clinton St", "Address_Li": null, "City": "Chicago", "State": "IL", "Zip5": 60661, "Zip4": 0, "County": "COOK", "Type": "Grocery Store" }, "geometry": { "type": "Point", "coordinates": [ -87.641136, 41.883968 ] } },
{ "type": "Feature", "properties": { "OBJECTID": 625, "FID_": 470, "Store_Name": "Costco Wholesale 0380", "Longitude": -87.676773, "Latitude": 41.931038, "Address": "2746 N Clybourn Ave", "Address_Li": null, "City": "Chicago", "State": "IL", "Zip5": 60614, "Zip4": 1006, "County": "COOK", "Type": "Hypermarket" }, "geometry": { "type": "Point", "coordinates": [ -87.676773, 41.931038 ] } },
{ "type": "Feature", "properties": { "OBJECTID": 627, "FID_": 832, "Store_Name": "Costco Wholesale 1107", "Longitude": -87.666359, "Latitude": 41.862335, "Address": "1430 S Ashland Ave", "Address_Li": null, "City": "Chicago", "State": "IL", "Zip5": 60608, "Zip4": 2040, "County": "COOK", "Type": "Hypermarket" }, "geometry": { "type": "Point", "coordinates": [ -87.666359, 41.862335 ] } },
{ "type": "Feature", "properties": { "OBJECTID": 635, "FID_": 635, "Store_Name": "Carniceria Guanajuato", "Longitude": -87.758163, "Latitude": 41.924129, "Address": "5250 W Fullerton Ave", "Address_Li": null, "City": "Chicago", "State": "IL", "Zip5": 60639, "Zip4": 1402, "County": "COOK", "Type": "Grocery Store" }, "geometry": { "type": "Point", "coordinates": [ -87.758163, 41.924129 ] } },
{ "type": "Feature", "properties": { "OBJECTID": 639, "FID_": 2002, "Store_Name": "COUNTY FAIR", "Longitude": -87.681366, "Latitude": 41.69714, "Address": "10800 S Western Ave", "Address_Li": null, "City": "Chicago", "State": "IL", "Zip5": 60643, "Zip4": 3226, "County": "COOK", "Type": "Supermarket" }, "geometry": { "type": "Point", "coordinates": [ -87.681366, 41.69714 ] } },
{ "type": "Feature", "properties": { "OBJECTID": 656, "FID_": 1631, "Store_Name": "Danny's Market Inc", "Longitude": -87.659805, "Latitude": 41.975605, "Address": "5129 N Broadway St", "Address_Li": null, "City": "Chicago", "State": "IL", "Zip5": 60640, "Zip4": 3018, "County": "COOK", "Type": "Grocery Store" }, "geometry": { "type": "Point", "coordinates": [ -87.659805, 41.975605 ] } },
{ "type": "Feature", "properties": { "OBJECTID": 661, "FID_": 1002, "Store_Name": "Del Rancho Market", "Longitude": -87.795921, "Latitude": 41.923664, "Address": "6816 W Grand Ave", "Address_Li": null, "City": "Chicago", "State": "IL", "Zip5": 60707, "Zip4": 2240, "County": "COOK", "Type": "Grocery Store" }, "geometry": { "type": "Point", "coordinates": [ -87.795921, 41.923664 ] } },
{ "type": "Feature", "properties": { "OBJECTID": 671, "FID_": 1912, "Store_Name": "DEVON MARKET", "Longitude": -87.667625, "Latitude": 41.99815, "Address": "1440 W Devon Ave", "Address_Li": null, "City": "Chicago", "State": "IL", "Zip5": 60660, "Zip4": 1326, "County": "COOK", "Type": "Grocery Store" }, "geometry": { "type": "Point", "coordinates": [ -87.667625, 41.99815 ] } },
{ "type": "Feature", "properties": { "OBJECTID": 675, "FID_": 481, "Store_Name": "Dill Pickle Food Co-op", "Longitude": -87.703888, "Latitude": 41.924725, "Address": "3039 W Fullerton Ave", "Address_Li": null, "City": "Chicago", "State": "IL", "Zip5": 60647, "Zip4": 2807, "County": "COOK", "Type": "Grocery Store" }, "geometry": { "type": "Point", "coordinates": [ -87.703888, 41.924725 ] } },
{ "type": "Feature", "properties": { "OBJECTID": 681, "FID_": 1449, "Store_Name": "Don Gollo Supermercado Inc", "Longitude": -87.703194, "Latitude": 41.782124, "Address": "6113 S Kedzie Ave", "Address_Li": null, "City": "Chicago", "State": "IL", "Zip5": 60629, "Zip4": 3318, "County": "COOK", "Type": "Supermarket" }, "geometry": { "type": "Point", "coordinates": [ -87.703194, 41.782124 ] } },
{ "type": "Feature", "properties": { "OBJECTID": 697, "FID_": 1914, "Store_Name": "EDGEWATER PRODUCE", "Longitude": -87.668465, "Latitude": 41.982117, "Address": "5509 N Clark St", "Address_Li": null, "City": "Chicago", "State": "IL", "Zip5": 60640, "Zip4": 1213, "County": "COOK", "Type": "Grocery Store" }, "geometry": { "type": "Point", "coordinates": [ -87.668465, 41.982117 ] } },
{ "type": "Feature", "properties": { "OBJECTID": 701, "FID_": 6, "Store_Name": "El Barakah Supermarket", "Longitude": -87.560486, "Latitude": 41.763927, "Address": "7300 S South Shore Dr", "Address_Li": null, "City": "Chicago", "State": "IL", "Zip5": 60649, "Zip4": 0, "County": "COOK", "Type": "Supermarket" }, "geometry": { "type": "Point", "coordinates": [ -87.560486, 41.763927 ] } },
{ "type": "Feature", "properties": { "OBJECTID": 722, "FID_": 1273, "Store_Name": "El Supermercado Martinez", "Longitude": -87.702156, "Latitude": 41.815346, "Address": "4301 S Archer Ave", "Address_Li": null, "City": "Chicago", "State": "IL", "Zip5": 60632, "Zip4": 2844, "County": "COOK", "Type": "Supermarket" }, "geometry": { "type": "Point", "coordinates": [ -87.702156, 41.815346 ] } },
{ "type": "Feature", "properties": { "OBJECTID": 770, "FID_": 2011, "Store_Name": "FAIR SHARE FINER FOOD, INC.", "Longitude": -87.78212, "Latitude": 41.777702, "Address": "6422 W 63rd St", "Address_Li": null, "City": "Chicago", "State": "IL", "Zip5": 60638, "Zip4": 5004, "County": "COOK", "Type": "Supermarket" }, "geometry": { "type": "Point", "coordinates": [ -87.78212, 41.777702 ] } },
{ "type": "Feature", "properties": { "OBJECTID": 771, "FID_": 2158, "Store_Name": "FAIRPLAY FOODS", "Longitude": -87.685715, "Latitude": 41.851994, "Address": "2200 S Western Ave", "Address_Li": null, "City": "Chicago", "State": "IL", "Zip5": 60608, "Zip4": 3816, "County": "COOK", "Type": "Grocery Store" }, "geometry": { "type": "Point", "coordinates": [ -87.685715, 41.851994 ] } },
{ "type": "Feature", "properties": { "OBJECTID": 773, "FID_": 788, "Store_Name": "FAIRPLAY FOODS, INC.", "Longitude": -87.679504, "Latitude": 41.691738, "Address": "2323 W 111th St", "Address_Li": null, "City": "Chicago", "State": "IL", "Zip5": 60643, "Zip4": 3923, "County": "COOK", "Type": "Supermarket" }, "geometry": { "type": "Point", "coordinates": [ -87.679504, 41.691738 ] } },
{ "type": "Feature", "properties": { "OBJECTID": 774, "FID_": 767, "Store_Name": "FAIRPLAY FOURSOME FOODS", "Longitude": -87.645638, "Latitude": 41.809929, "Address": "4640 S Halsted St", "Address_Li": null, "City": "Chicago", "State": "IL", "Zip5": 60609, "Zip4": 4467, "County": "COOK", "Type": "Grocery Store" }, "geometry": { "type": "Point", "coordinates": [ -87.645638, 41.809929 ] } },
{ "type": "Feature", "properties": { "OBJECTID": 784, "FID_": 784, "Store_Name": "MARTINEZ CONVENIENT FOOD MART", "Longitude": -87.651024, "Latitude": 41.834682, "Address": "3301 S Morgan St", "Address_Li": null, "City": "Chicago", "State": "IL", "Zip5": 60608, "Zip4": 6721, "County": "COOK", "Type": "Grocery Store" }, "geometry": { "type": "Point", "coordinates": [ -87.651024, 41.834682 ] } },
{ "type": "Feature", "properties": { "OBJECTID": 795, "FID_": 35, "Store_Name": "FARM SUPERMARKET", "Longitude": -87.686684, "Latitude": 41.997753, "Address": "2257 W Devon Ave", "Address_Li": null, "City": "Chicago", "State": "IL", "Zip5": 60659, "Zip4": 2042, "County": "COOK", "Type": "Supermarket" }, "geometry": { "type": "Point", "coordinates": [ -87.686684, 41.997753 ] } },
{ "type": "Feature", "properties": { "OBJECTID": 802, "FID_": 1693, "Store_Name": "Farmer's Pride Produce", "Longitude": -87.686859, "Latitude": 41.895348, "Address": "756 N Western Ave", "Address_Li": null, "City": "Chicago", "State": "IL", "Zip5": 60612, "Zip4": 1242, "County": "COOK", "Type": "Grocery Store" }, "geometry": { "type": "Point", "coordinates": [ -87.686859, 41.895348 ] } },
{ "type": "Feature", "properties": { "OBJECTID": 805, "FID_": 995, "Store_Name": "Fat Lee Supermarket", "Longitude": -87.632988, "Latitude": 41.843662, "Address": "2707 S Wells St", "Address_Li": null, "City": "Chicago", "State": "IL", "Zip5": 60616, "Zip4": 2747, "County": "COOK", "Type": "Supermarket" }, "geometry": { "type": "Point", "coordinates": [ -87.632988, 41.843662 ] } },
{ "type": "Feature", "properties": { "OBJECTID": 817, "FID_": 1952, "Store_Name": "Rio Valley Market Chicago", "Longitude": -87.705757, "Latitude": 41.778885, "Address": "3307 W 63rd St", "Address_Li": null, "City": "Chicago", "State": "IL", "Zip5": 60629, "Zip4": 3316, "County": "COOK", "Type": "Supermarket" }, "geometry": { "type": "Point", "coordinates": [ -87.705757, 41.778885 ] } },
{ "type": "Feature", "properties": { "OBJECTID": 819, "FID_": 391, "Store_Name": "First Choice Market", "Longitude": -87.550323, "Latitude": 41.730034, "Address": "3019 E 91st St", "Address_Li": null, "City": "Chicago", "State": "IL", "Zip5": 60617, "Zip4": 4399, "County": "COOK", "Type": "Grocery Store" }, "geometry": { "type": "Point", "coordinates": [ -87.550323, 41.730034 ] } },
{ "type": "Feature", "properties": { "OBJECTID": 858, "FID_": 1171, "Store_Name": "Fresh Market Place", "Longitude": -87.687546, "Latitude": 41.920956, "Address": "2134 N Western Ave", "Address_Li": null, "City": "Chicago", "State": "IL", "Zip5": 60647, "Zip4": 4106, "County": "COOK", "Type": "Grocery Store" }, "geometry": { "type": "Point", "coordinates": [ -87.687546, 41.920956 ] } },
{ "type": "Feature", "properties": { "OBJECTID": 860, "FID_": 1701, "Store_Name": "Fresh Market Place 3", "Longitude": -87.752129, "Latitude": 41.924229, "Address": "5020 W Fullerton Ave", "Address_Li": null, "City": "Chicago", "State": "IL", "Zip5": 60639, "Zip4": 2414, "County": "COOK", "Type": "Supermarket" }, "geometry": { "type": "Point", "coordinates": [ -87.752129, 41.924229 ] } },
{ "type": "Feature", "properties": { "OBJECTID": 909, "FID_": 539, "Store_Name": "Gohyang Food", "Longitude": -87.699577, "Latitude": 41.985775, "Address": "5731 N Lincoln Ave", "Address_Li": null, "City": "Chicago", "State": "IL", "Zip5": 60659, "Zip4": 4723, "County": "COOK", "Type": "Grocery Store" }, "geometry": { "type": "Point", "coordinates": [ -87.699577, 41.985775 ] } },
{ "type": "Feature", "properties": { "OBJECTID": 919, "FID_": 1816, "Store_Name": "GRANADO'S SUPERMERCADO", "Longitude": -87.671471, "Latitude": 41.808483, "Address": "1855 W 47th St", "Address_Li": null, "City": "Chicago", "State": "IL", "Zip5": 60609, "Zip4": 3844, "County": "COOK", "Type": "Supermarket" }, "geometry": { "type": "Point", "coordinates": [ -87.671471, 41.808483 ] } },
{ "type": "Feature", "properties": { "OBJECTID": 921, "FID_": 1978, "Store_Name": "GRAND FOOD MARKET INC", "Longitude": -87.755989, "Latitude": 41.917007, "Address": "5202 W Grand Ave", "Address_Li": null, "City": "Chicago", "State": "IL", "Zip5": 60639, "Zip4": 3008, "County": "COOK", "Type": "Grocery Store" }, "geometry": { "type": "Point", "coordinates": [ -87.755989, 41.917007 ] } },
{ "type": "Feature", "properties": { "OBJECTID": 923, "FID_": 840, "Store_Name": "Grand Palace Supermarket, Inc.", "Longitude": -87.624863, "Latitude": 41.764572, "Address": "7131 S State St", "Address_Li": null, "City": "Chicago", "State": "IL", "Zip5": 60619, "Zip4": 1017, "County": "COOK", "Type": "Supermarket" }, "geometry": { "type": "Point", "coordinates": [ -87.624863, 41.764572 ] } },
{ "type": "Feature", "properties": { "OBJECTID": 934, "FID_": 86, "Store_Name": "GROCERY BASKET", "Longitude": -87.614403, "Latitude": 41.707283, "Address": "351 E 103rd St", "Address_Li": null, "City": "Chicago", "State": "IL", "Zip5": 60628, "Zip4": 2856, "County": "COOK", "Type": "Grocery Store" }, "geometry": { "type": "Point", "coordinates": [ -87.614403, 41.707283 ] } },
{ "type": "Feature", "properties": { "OBJECTID": 949, "FID_": 50, "Store_Name": "HAPPY FOODS", "Longitude": -87.763542, "Latitude": 41.99799, "Address": "6415 N Central Ave", "Address_Li": null, "City": "Chicago", "State": "IL", "Zip5": 60646, "Zip4": 2901, "County": "COOK", "Type": "Supermarket" }, "geometry": { "type": "Point", "coordinates": [ -87.763542, 41.99799 ] } },
{ "type": "Feature", "properties": { "OBJECTID": 950, "FID_": 52, "Store_Name": "HAPPY FOODS", "Longitude": -87.818474, "Latitude": 42.004276, "Address": "6783 N Northwest Hwy", "Address_Li": null, "City": "Chicago", "State": "IL", "Zip5": 60631, "Zip4": 1264, "County": "COOK", "Type": "Supermarket" }, "geometry": { "type": "Point", "coordinates": [ -87.818474, 42.004276 ] } },
{ "type": "Feature", "properties": { "OBJECTID": 951, "FID_": 1778, "Store_Name": "HARVESTIME FOODS", "Longitude": -87.695244, "Latitude": 41.96859, "Address": "2632 W Lawrence Ave", "Address_Li": null, "City": "Chicago", "State": "IL", "Zip5": 60625, "Zip4": 2945, "County": "COOK", "Type": "Grocery Store" }, "geometry": { "type": "Point", "coordinates": [ -87.695244, 41.96859 ] } },
{ "type": "Feature", "properties": { "OBJECTID": 958, "FID_": 490, "Store_Name": "Hegewisch Fruit Market", "Longitude": -87.547089, "Latitude": 41.655239, "Address": "13209 S Baltimore Ave", "Address_Li": null, "City": "Chicago", "State": "IL", "Zip5": 60633, "Zip4": 1431, "County": "COOK", "Type": "Grocery Store" }, "geometry": { "type": "Point", "coordinates": [ -87.547089, 41.655239 ] } },
{ "type": "Feature", "properties": { "OBJECTID": 964, "FID_": 1809, "Store_Name": "Hyde Park Produce Ltd", "Longitude": -87.596184, "Latitude": 41.799522, "Address": "1226 E 53rd St", "Address_Li": null, "City": "Chicago", "State": "IL", "Zip5": 60615, "Zip4": 4008, "County": "COOK", "Type": "Grocery Store" }, "geometry": { "type": "Point", "coordinates": [ -87.596184, 41.799522 ] } },
{ "type": "Feature", "properties": { "OBJECTID": 978, "FID_": 683, "Store_Name": "INTERNATIONAL FOODS N W  INC", "Longitude": -87.73703, "Latitude": 41.924389, "Address": "4404 W Fullerton Ave", "Address_Li": null, "City": "Chicago", "State": "IL", "Zip5": 60639, "Zip4": 1932, "County": "COOK", "Type": "Grocery Store" }, "geometry": { "type": "Point", "coordinates": [ -87.73703, 41.924389 ] } },
{ "type": "Feature", "properties": { "OBJECTID": 982, "FID_": 740, "Store_Name": "INTERNATIONAL SUPERMARKET INC", "Longitude": -87.6651, "Latitude": 41.811207, "Address": "4556 S Ashland Ave", "Address_Li": null, "City": "Chicago", "State": "IL", "Zip5": 60609, "Zip4": 3249, "County": "COOK", "Type": "Supermarket" }, "geometry": { "type": "Point", "coordinates": [ -87.6651, 41.811207 ] } },
{ "type": "Feature", "properties": { "OBJECTID": 1006, "FID_": 610, "Store_Name": "JEWEL 3030", "Longitude": -87.586174, "Latitude": 41.757832, "Address": "7530 S Stony Island Ave", "Address_Li": null, "City": "Chicago", "State": "IL", "Zip5": 60649, "Zip4": 3914, "County": "COOK", "Type": "Supermarket" }, "geometry": { "type": "Point", "coordinates": [ -87.586174, 41.757832 ] } },
{ "type": "Feature", "properties": { "OBJECTID": 1007, "FID_": 2124, "Store_Name": "JEWEL 3043", "Longitude": -87.614952, "Latitude": 41.833061, "Address": "443 E 34th St", "Address_Li": null, "City": "Chicago", "State": "IL", "Zip5": 60616, "Zip4": 4135, "County": "COOK", "Type": "Supermarket" }, "geometry": { "type": "Point", "coordinates": [ -87.614952, 41.833061 ] } },
{ "type": "Feature", "properties": { "OBJECTID": 1010, "FID_": 687, "Store_Name": "JEWEL 3092", "Longitude": -87.583588, "Latitude": 41.722313, "Address": "1655 E 95th St", "Address_Li": null, "City": "Chicago", "State": "IL", "Zip5": 60617, "Zip4": 4707, "County": "COOK", "Type": "Supermarket" }, "geometry": { "type": "Point", "coordinates": [ -87.583588, 41.722313 ] } },
{ "type": "Feature", "properties": { "OBJECTID": 1012, "FID_": 667, "Store_Name": "JEWEL 3114", "Longitude": -87.700111, "Latitude": 41.706261, "Address": "3128 W 103rd St", "Address_Li": null, "City": "Chicago", "State": "IL", "Zip5": 60655, "Zip4": 2010, "County": "COOK", "Type": "Supermarket" }, "geometry": { "type": "Point", "coordinates": [ -87.700111, 41.706261 ] } },
{ "type": "Feature", "properties": { "OBJECTID": 1014, "FID_": 768, "Store_Name": "Jewel 3170", "Longitude": -87.723312, "Latitude": 41.796551, "Address": "5320 S Pulaski Rd", "Address_Li": null, "City": "Chicago", "State": "IL", "Zip5": 60632, "Zip4": 4224, "County": "COOK", "Type": "Supermarket" }, "geometry": { "type": "Point", "coordinates": [ -87.723312, 41.796551 ] } },
{ "type": "Feature", "properties": { "OBJECTID": 1015, "FID_": 684, "Store_Name": "JEWEL 3176", "Longitude": -87.662766, "Latitude": 41.722801, "Address": "9400 S Ashland Ave", "Address_Li": null, "City": "Chicago", "State": "IL", "Zip5": 60620, "Zip4": 5121, "County": "COOK", "Type": "Supermarket" }, "geometry": { "type": "Point", "coordinates": [ -87.662766, 41.722801 ] } },
{ "type": "Feature", "properties": { "OBJECTID": 1017, "FID_": 643, "Store_Name": "JEWEL 3181", "Longitude": -87.626495, "Latitude": 41.73624, "Address": "87 W 87th St", "Address_Li": null, "City": "Chicago", "State": "IL", "Zip5": 60620, "Zip4": 1315, "County": "COOK", "Type": "Supermarket" }, "geometry": { "type": "Point", "coordinates": [ -87.626495, 41.73624 ] } },
{ "type": "Feature", "properties": { "OBJECTID": 1020, "FID_": 400, "Store_Name": "Jewel 3187", "Longitude": -87.662506, "Latitude": 41.6805, "Address": "11730 S Marshfield", "Address_Li": null, "City": "Chicago", "State": "IL", "Zip5": 60643, "Zip4": 0, "County": "COOK", "Type": "Supermarket" }, "geometry": { "type": "Point", "coordinates": [ -87.662506, 41.6805 ] } },
{ "type": "Feature", "properties": { "OBJECTID": 1022, "FID_": 1910, "Store_Name": "Jewel 3224", "Longitude": -87.7873, "Latitude": 41.952953, "Address": "6430 W Irving Park Rd", "Address_Li": null, "City": "Chicago", "State": "IL", "Zip5": 60634, "Zip4": 2459, "County": "COOK", "Type": "Supermarket" }, "geometry": { "type": "Point", "coordinates": [ -87.7873, 41.952953 ] } },
{ "type": "Feature", "properties": { "OBJECTID": 1024, "FID_": 2119, "Store_Name": "JEWEL 3241", "Longitude": -87.66993, "Latitude": 41.906151, "Address": "1341 N Paulina St", "Address_Li": null, "City": "Chicago", "State": "IL", "Zip5": 60622, "Zip4": 2145, "County": "COOK", "Type": "Supermarket" }, "geometry": { "type": "Point", "coordinates": [ -87.66993, 41.906151 ] } },
{ "type": "Feature", "properties": { "OBJECTID": 1025, "FID_": 1839, "Store_Name": "JEWEL 3262", "Longitude": -87.744469, "Latitude": 41.95351, "Address": "4660 W Irving Park Rd", "Address_Li": null, "City": "Chicago", "State": "IL", "Zip5": 60641, "Zip4": 2888, "County": "COOK", "Type": "Supermarket" }, "geometry": { "type": "Point", "coordinates": [ -87.744469, 41.95351 ] } },
{ "type": "Feature", "properties": { "OBJECTID": 1027, "FID_": 688, "Store_Name": "JEWEL 3282", "Longitude": -87.767395, "Latitude": 41.9669, "Address": "4729 N Central Ave", "Address_Li": null, "City": "Chicago", "State": "IL", "Zip5": 60630, "Zip4": 3269, "County": "COOK", "Type": "Supermarket" }, "geometry": { "type": "Point", "coordinates": [ -87.767395, 41.9669 ] } },
{ "type": "Feature", "properties": { "OBJECTID": 1029, "FID_": 686, "Store_Name": "Jewel 3296", "Longitude": -87.810577, "Latitude": 41.974499, "Address": "7342 W Foster", "Address_Li": null, "City": "Chicago", "State": "IL", "Zip5": 60656, "Zip4": 0, "County": "COOK", "Type": "Supermarket" }, "geometry": { "type": "Point", "coordinates": [ -87.810577, 41.974499 ] } },
{ "type": "Feature", "properties": { "OBJECTID": 1030, "FID_": 2130, "Store_Name": "Jewel 3302", "Longitude": -87.682854, "Latitude": 41.827286, "Address": "3644 S Archer Ave", "Address_Li": null, "City": "Chicago", "State": "IL", "Zip5": 60609, "Zip4": 1044, "County": "COOK", "Type": "Supermarket" }, "geometry": { "type": "Point", "coordinates": [ -87.682854, 41.827286 ] } },
{ "type": "Feature", "properties": { "OBJECTID": 1031, "FID_": 702, "Store_Name": "JEWEL 3344", "Longitude": -87.666481, "Latitude": 41.866371, "Address": "1220 S Ashland Ave", "Address_Li": null, "City": "Chicago", "State": "IL", "Zip5": 60608, "Zip4": 1402, "County": "COOK", "Type": "Supermarket" }, "geometry": { "type": "Point", "coordinates": [ -87.666481, 41.866371 ] } },
{ "type": "Feature", "properties": { "OBJECTID": 1032, "FID_": 1991, "Store_Name": "JEWEL 3368", "Longitude": -87.625717, "Latitude": 41.79361, "Address": "550 N State St", "Address_Li": null, "City": "Chicago", "State": "IL", "Zip5": 60610, "Zip4": 4315, "County": "COOK", "Type": "Supermarket" }, "geometry": { "type": "Point", "coordinates": [ -87.625717, 41.79361 ] } },
{ "type": "Feature", "properties": { "OBJECTID": 1033, "FID_": 693, "Store_Name": "JEWEL 3407", "Longitude": -87.668579, "Latitude": 41.982166, "Address": "5516 N Clark St", "Address_Li": null, "City": "Chicago", "State": "IL", "Zip5": 60640, "Zip4": 1214, "County": "COOK", "Type": "Supermarket" }, "geometry": { "type": "Point", "coordinates": [ -87.668579, 41.982166 ] } },
{ "type": "Feature", "properties": { "OBJECTID": 1034, "FID_": 1882, "Store_Name": "Jewel 3441", "Longitude": -87.668571, "Latitude": 41.93515, "Address": "2940 N Ashland Ave", "Address_Li": null, "City": "Chicago", "State": "IL", "Zip5": 60657, "Zip4": 4004, "County": "COOK", "Type": "Supermarket" }, "geometry": { "type": "Point", "coordinates": [ -87.668571, 41.93515 ] } },
{ "type": "Feature", "properties": { "OBJECTID": 1039, "FID_": 1946, "Store_Name": "JEWEL 3442", "Longitude": -87.729843, "Latitude": 41.975582, "Address": "4042 W Foster Ave", "Address_Li": null, "City": "Chicago", "State": "IL", "Zip5": 60630, "Zip4": 2747, "County": "COOK", "Type": "Supermarket" }, "geometry": { "type": "Point", "coordinates": [ -87.729843, 41.975582 ] } },
{ "type": "Feature", "properties": { "OBJECTID": 1041, "FID_": 2139, "Store_Name": "Jewel 3443", "Longitude": -87.659859, "Latitude": 41.978928, "Address": "5343 N Broadway St", "Address_Li": null, "City": "Chicago", "State": "IL", "Zip5": 60640, "Zip4": 2311, "County": "COOK", "Type": "Supermarket" }, "geometry": { "type": "Point", "coordinates": [ -87.659859, 41.978928 ] } },
{ "type": "Feature", "properties": { "OBJECTID": 1042, "FID_": 2117, "Store_Name": "JEWEL 3454", "Longitude": -87.682289, "Latitude": 41.959141, "Address": "4250 N Lincoln Ave", "Address_Li": null, "City": "Chicago", "State": "IL", "Zip5": 60618, "Zip4": 2902, "County": "COOK", "Type": "Supermarket" }, "geometry": { "type": "Point", "coordinates": [ -87.682289, 41.959141 ] } },
{ "type": "Feature", "properties": { "OBJECTID": 1043, "FID_": 732, "Store_Name": "Jewel 3455", "Longitude": -87.654655, "Latitude": 41.961384, "Address": "4355 N Sheridan Rd", "Address_Li": null, "City": "Chicago", "State": "IL", "Zip5": 60613, "Zip4": 1497, "County": "COOK", "Type": "Supermarket" }, "geometry": { "type": "Point", "coordinates": [ -87.654655, 41.961384 ] } },
{ "type": "Feature", "properties": { "OBJECTID": 1045, "FID_": 728, "Store_Name": "Jewel 3470", "Longitude": -87.708069, "Latitude": 41.946033, "Address": "3570 N Elston Ave", "Address_Li": null, "City": "Chicago", "State": "IL", "Zip5": 60618, "Zip4": 4318, "County": "COOK", "Type": "Supermarket" }, "geometry": { "type": "Point", "coordinates": [ -87.708069, 41.946033 ] } },
{ "type": "Feature", "properties": { "OBJECTID": 1048, "FID_": 668, "Store_Name": "Jewel 3477", "Longitude": -87.843117, "Latitude": 41.959457, "Address": "4734 N Pueblo", "Address_Li": null, "City": "Chicago", "State": "IL", "Zip5": 60656, "Zip4": 0, "County": "COOK", "Type": "Supermarket" }, "geometry": { "type": "Point", "coordinates": [ -87.843117, 41.959457 ] } },
{ "type": "Feature", "properties": { "OBJECTID": 1050, "FID_": 1950, "Store_Name": "JEWEL 3501", "Longitude": -87.68824, "Latitude": 41.943146, "Address": "3400 N Western Ave", "Address_Li": null, "City": "Chicago", "State": "IL", "Zip5": 60618, "Zip4": 6012, "County": "COOK", "Type": "Supermarket" }, "geometry": { "type": "Point", "coordinates": [ -87.68824, 41.943146 ] } },
{ "type": "Feature", "properties": { "OBJECTID": 1053, "FID_": 657, "Store_Name": "JEWEL 3514", "Longitude": -87.646767, "Latitude": 41.946617, "Address": "3531 N Broadway St", "Address_Li": null, "City": "Chicago", "State": "IL", "Zip5": 60657, "Zip4": 1825, "County": "COOK", "Type": "Supermarket" }, "geometry": { "type": "Point", "coordinates": [ -87.646767, 41.946617 ] } },
{ "type": "Feature", "properties": { "OBJECTID": 1054, "FID_": 671, "Store_Name": "JEWEL 3721", "Longitude": -87.771408, "Latitude": 41.794281, "Address": "6107 S Archer Ave", "Address_Li": null, "City": "Chicago", "State": "IL", "Zip5": 60638, "Zip4": 2743, "County": "COOK", "Type": "Supermarket" }, "geometry": { "type": "Point", "coordinates": [ -87.771408, 41.794281 ] } },
{ "type": "Feature", "properties": { "OBJECTID": 1055, "FID_": 1940, "Store_Name": "Jewel Osco 3345", "Longitude": -87.625885, "Latitude": 41.866753, "Address": "1224 S Wabash Ave", "Address_Li": null, "City": "Chicago", "State": "IL", "Zip5": 60605, "Zip4": 2401, "County": "COOK", "Type": "Supermarket" }, "geometry": { "type": "Point", "coordinates": [ -87.625885, 41.866753 ] } },
{ "type": "Feature", "properties": { "OBJECTID": 1056, "FID_": 2134, "Store_Name": "Jewel Osco 3349", "Longitude": -87.785606, "Latitude": 41.925873, "Address": "2520 N Narragansett Ave", "Address_Li": null, "City": "Chicago", "State": "IL", "Zip5": 60639, "Zip4": 1041, "County": "COOK", "Type": "Supermarket" }, "geometry": { "type": "Point", "coordinates": [ -87.785606, 41.925873 ] } },
{ "type": "Feature", "properties": { "OBJECTID": 1057, "FID_": 319, "Store_Name": "JEWEL OSCO 3376", "Longitude": -87.644348, "Latitude": 41.888374, "Address": "370 N Desplaines St", "Address_Li": null, "City": "Chicago", "State": "IL", "Zip5": 60661, "Zip4": 1106, "County": "COOK", "Type": "Supermarket" }, "geometry": { "type": "Point", "coordinates": [ -87.644348, 41.888374 ] } },
{ "type": "Feature", "properties": { "OBJECTID": 1059, "FID_": 1055, "Store_Name": "Jewel\/Osco 2500", "Longitude": -87.639252, "Latitude": 41.865025, "Address": "1340 S Canal St", "Address_Li": null, "City": "Chicago", "State": "IL", "Zip5": 60607, "Zip4": 5208, "County": "COOK", "Type": "Supermarket" }, "geometry": { "type": "Point", "coordinates": [ -87.639252, 41.865025 ] } },
{ "type": "Feature", "properties": { "OBJECTID": 1060, "FID_": 1056, "Store_Name": "Jewel\/Osco 2502", "Longitude": -87.672989, "Latitude": 41.927776, "Address": "2550 N Clybourn Ave", "Address_Li": null, "City": "Chicago", "State": "IL", "Zip5": 60614, "Zip4": 1941, "County": "COOK", "Type": "Supermarket" }, "geometry": { "type": "Point", "coordinates": [ -87.672989, 41.927776 ] } },
{ "type": "Feature", "properties": { "OBJECTID": 1061, "FID_": 1133, "Store_Name": "Jewel\/Osco 2506", "Longitude": -87.63916, "Latitude": 41.903725, "Address": "424 W Division St", "Address_Li": null, "City": "Chicago", "State": "IL", "Zip5": 60610, "Zip4": 1727, "County": "COOK", "Type": "Supermarket" }, "geometry": { "type": "Point", "coordinates": [ -87.63916, 41.903725 ] } },
{ "type": "Feature", "properties": { "OBJECTID": 1064, "FID_": 1134, "Store_Name": "Jewel\/Osco 2508", "Longitude": -87.675163, "Latitude": 42.019371, "Address": "1763 W Howard St", "Address_Li": null, "City": "Chicago", "State": "IL", "Zip5": 60626, "Zip4": 1626, "County": "COOK", "Type": "Supermarket" }, "geometry": { "type": "Point", "coordinates": [ -87.675163, 42.019371 ] } },
{ "type": "Feature", "properties": { "OBJECTID": 1068, "FID_": 580, "Store_Name": "Jewel\/Osco 3632", "Longitude": -87.664024, "Latitude": 41.947636, "Address": "3630 N Southport Ave", "Address_Li": null, "City": "Chicago", "State": "IL", "Zip5": 60613, "Zip4": 3710, "County": "COOK", "Type": "Supermarket" }, "geometry": { "type": "Point", "coordinates": [ -87.664024, 41.947636 ] } },
{ "type": "Feature", "properties": { "OBJECTID": 1070, "FID_": 1552, "Store_Name": "Jimenez Fresh Market", "Longitude": -87.760277, "Latitude": 41.938679, "Address": "5330 W Belmont Ave", "Address_Li": null, "City": "Chicago", "State": "IL", "Zip5": 60641, "Zip4": 4103, "County": "COOK", "Type": "Grocery Store" }, "geometry": { "type": "Point", "coordinates": [ -87.760277, 41.938679 ] } },
{ "type": "Feature", "properties": { "OBJECTID": 1089, "FID_": 2039, "Store_Name": "KANESHIE SUPERMARKET", "Longitude": -87.656853, "Latitude": 41.9645, "Address": "4552 N Broadway St", "Address_Li": null, "City": "Chicago", "State": "IL", "Zip5": 60640, "Zip4": 5602, "County": "COOK", "Type": "Supermarket" }, "geometry": { "type": "Point", "coordinates": [ -87.656853, 41.9645 ] } },
{ "type": "Feature", "properties": { "OBJECTID": 1092, "FID_": 1846, "Store_Name": "K-BUENA SUPERMARKET", "Longitude": -87.730827, "Latitude": 41.771328, "Address": "4324 W Marquette Rd", "Address_Li": null, "City": "Chicago", "State": "IL", "Zip5": 60629, "Zip4": 5648, "County": "COOK", "Type": "Supermarket" }, "geometry": { "type": "Point", "coordinates": [ -87.730827, 41.771328 ] } },
{ "type": "Feature", "properties": { "OBJECTID": 1104, "FID_": 1422, "Store_Name": "King Supermarket", "Longitude": -87.61454, "Latitude": 41.820278, "Address": "400 E 41 St", "Address_Li": null, "City": "Chicago", "State": "IL", "Zip5": 60653, "Zip4": 0, "County": "COOK", "Type": "Supermarket" }, "geometry": { "type": "Point", "coordinates": [ -87.61454, 41.820278 ] } },
{ "type": "Feature", "properties": { "OBJECTID": 1111, "FID_": 1926, "Store_Name": "Kmart 3371", "Longitude": -87.715149, "Latitude": 41.946514, "Address": "3443 W Addison St", "Address_Li": null, "City": "Chicago", "State": "IL", "Zip5": 60618, "Zip4": 4249, "County": "COOK", "Type": "Hypermarket" }, "geometry": { "type": "Point", "coordinates": [ -87.715149, 41.946514 ] } },
{ "type": "Feature", "properties": { "OBJECTID": 1113, "FID_": 1927, "Store_Name": "Kmart 3594", "Longitude": -87.70385, "Latitude": 41.80154, "Address": "5050 S Kedzie Ave", "Address_Li": null, "City": "Chicago", "State": "IL", "Zip5": 60632, "Zip4": 3009, "County": "COOK", "Type": "Hypermarket" }, "geometry": { "type": "Point", "coordinates": [ -87.70385, 41.80154 ] } },
{ "type": "Feature", "properties": { "OBJECTID": 1141, "FID_": 791, "Store_Name": "La Azteca Produce Corp", "Longitude": -87.674255, "Latitude": 42.010761, "Address": "7067 N Clark St", "Address_Li": null, "City": "Chicago", "State": "IL", "Zip5": 60626, "Zip4": 2426, "County": "COOK", "Type": "Grocery Store" }, "geometry": { "type": "Point", "coordinates": [ -87.674255, 42.010761 ] } },
{ "type": "Feature", "properties": { "OBJECTID": 1149, "FID_": 1677, "Store_Name": "La Carreta Grocery", "Longitude": -87.673508, "Latitude": 42.006901, "Address": "6910 N Clark St", "Address_Li": null, "City": "Chicago", "State": "IL", "Zip5": 60626, "Zip4": 3209, "County": "COOK", "Type": "Supermarket" }, "geometry": { "type": "Point", "coordinates": [ -87.673508, 42.006901 ] } },
{ "type": "Feature", "properties": { "OBJECTID": 1153, "FID_": 679, "Store_Name": "LA CASA DEL PUEBLO, INC.", "Longitude": -87.66153, "Latitude": 41.857502, "Address": "1810 S Blue Island Ave", "Address_Li": null, "City": "Chicago", "State": "IL", "Zip5": 60608, "Zip4": 3098, "County": "COOK", "Type": "Grocery Store" }, "geometry": { "type": "Point", "coordinates": [ -87.66153, 41.857502 ] } },
{ "type": "Feature", "properties": { "OBJECTID": 1157, "FID_": 2110, "Store_Name": "LA CHIQUITA SUPERMARKET", "Longitude": -87.714531, "Latitude": 41.844372, "Address": "3555 W 26th St", "Address_Li": null, "City": "Chicago", "State": "IL", "Zip5": 60623, "Zip4": 3913, "County": "COOK", "Type": "Supermarket" }, "geometry": { "type": "Point", "coordinates": [ -87.714531, 41.844372 ] } },
{ "type": "Feature", "properties": { "OBJECTID": 1158, "FID_": 1863, "Store_Name": "LA CIENEGA SUPERFOOD, INC.", "Longitude": -87.535309, "Latitude": 41.69968, "Address": "10736 S Ewing Ave", "Address_Li": null, "City": "Chicago", "State": "IL", "Zip5": 60617, "Zip4": 6605, "County": "COOK", "Type": "Grocery Store" }, "geometry": { "type": "Point", "coordinates": [ -87.535309, 41.69968 ] } },
{ "type": "Feature", "properties": { "OBJECTID": 1160, "FID_": 1868, "Store_Name": "LA COPACABANA FOODS", "Longitude": -87.694443, "Latitude": 41.851936, "Address": "2732 W Cermak Rd", "Address_Li": null, "City": "Chicago", "State": "IL", "Zip5": 60608, "Zip4": 3528, "County": "COOK", "Type": "Grocery Store" }, "geometry": { "type": "Point", "coordinates": [ -87.694443, 41.851936 ] } },
{ "type": "Feature", "properties": { "OBJECTID": 1169, "FID_": 1111, "Store_Name": "La Flor De Michoacan", "Longitude": -87.756622, "Latitude": 41.945984, "Address": "5159 W Addison St", "Address_Li": null, "City": "Chicago", "State": "IL", "Zip5": 60641, "Zip4": 3402, "County": "COOK", "Type": "Grocery Store" }, "geometry": { "type": "Point", "coordinates": [ -87.756622, 41.945984 ] } },
{ "type": "Feature", "properties": { "OBJECTID": 1170, "FID_": 193, "Store_Name": "La Flor Grocery Store", "Longitude": -87.537766, "Latitude": 41.704506, "Address": "10500 S Avenue M", "Address_Li": null, "City": "Chicago", "State": "IL", "Zip5": 60617, "Zip4": 6215, "County": "COOK", "Type": "Grocery Store" }, "geometry": { "type": "Point", "coordinates": [ -87.537766, 41.704506 ] } },
{ "type": "Feature", "properties": { "OBJECTID": 1183, "FID_": 763, "Store_Name": "LA MERCED INC", "Longitude": -87.732628, "Latitude": 41.844097, "Address": "4335 W 26th St", "Address_Li": null, "City": "Chicago", "State": "IL", "Zip5": 60623, "Zip4": 4364, "County": "COOK", "Type": "Grocery Store" }, "geometry": { "type": "Point", "coordinates": [ -87.732628, 41.844097 ] } },
{ "type": "Feature", "properties": { "OBJECTID": 1186, "FID_": 1935, "Store_Name": "LA PALMA SUPERMARKET INC", "Longitude": -87.698288, "Latitude": 41.817715, "Address": "4173 S Archer Ave", "Address_Li": null, "City": "Chicago", "State": "IL", "Zip5": 60632, "Zip4": 1870, "County": "COOK", "Type": "Supermarket" }, "geometry": { "type": "Point", "coordinates": [ -87.698288, 41.817715 ] } },
{ "type": "Feature", "properties": { "OBJECTID": 1187, "FID_": 726, "Store_Name": "La Paloma Supermercado", "Longitude": -87.73111, "Latitude": 41.778599, "Address": "4324 W 63rd St", "Address_Li": null, "City": "Chicago", "State": "IL", "Zip5": 60629, "Zip4": 0, "County": "COOK", "Type": "Supermarket" }, "geometry": { "type": "Point", "coordinates": [ -87.73111, 41.778599 ] } },
{ "type": "Feature", "properties": { "OBJECTID": 1197, "FID_": 2034, "Store_Name": "LA PLACITA", "Longitude": -87.671379, "Latitude": 41.830486, "Address": "1840 W 35th St", "Address_Li": null, "City": "Chicago", "State": "IL", "Zip5": 60609, "Zip4": 1201, "County": "COOK", "Type": "Grocery Store" }, "geometry": { "type": "Point", "coordinates": [ -87.671379, 41.830486 ] } },
{ "type": "Feature", "properties": { "OBJECTID": 1200, "FID_": 483, "Store_Name": "La Primera", "Longitude": -87.668037, "Latitude": 41.972935, "Address": "5014 N Clark St", "Address_Li": null, "City": "Chicago", "State": "IL", "Zip5": 60640, "Zip4": 2824, "County": "COOK", "Type": "Grocery Store" }, "geometry": { "type": "Point", "coordinates": [ -87.668037, 41.972935 ] } },
{ "type": "Feature", "properties": { "OBJECTID": 1201, "FID_": 1271, "Store_Name": "La Raza Supermercado 1", "Longitude": -87.666504, "Latitude": 41.808559, "Address": "1645 W 47th St", "Address_Li": null, "City": "Chicago", "State": "IL", "Zip5": 60609, "Zip4": 3248, "County": "COOK", "Type": "Supermarket" }, "geometry": { "type": "Point", "coordinates": [ -87.666504, 41.808559 ] } },
{ "type": "Feature", "properties": { "OBJECTID": 1207, "FID_": 1970, "Store_Name": "LA UNICA FOOD MART INC", "Longitude": -87.668541, "Latitude": 41.998085, "Address": "1515 W Devon Ave", "Address_Li": null, "City": "Chicago", "State": "IL", "Zip5": 60660, "Zip4": 1313, "County": "COOK", "Type": "Grocery Store" }, "geometry": { "type": "Point", "coordinates": [ -87.668541, 41.998085 ] } },
{ "type": "Feature", "properties": { "OBJECTID": 1226, "FID_": 1764, "Store_Name": "LAWNDALE FOOD MARKET INC.", "Longitude": -87.717834, "Latitude": 41.858887, "Address": "3705 W 16th St", "Address_Li": null, "City": "Chicago", "State": "IL", "Zip5": 60623, "Zip4": 2027, "County": "COOK", "Type": "Supermarket" }, "geometry": { "type": "Point", "coordinates": [ -87.717834, 41.858887 ] } },
{ "type": "Feature", "properties": { "OBJECTID": 1228, "FID_": 331, "Store_Name": "Leamington Foods Inc", "Longitude": -87.70665, "Latitude": 41.866463, "Address": "3240 W Roosevelt Rd", "Address_Li": null, "City": "Chicago", "State": "IL", "Zip5": 60624, "Zip4": 4332, "County": "COOK", "Type": "Grocery Store" }, "geometry": { "type": "Point", "coordinates": [ -87.70665, 41.866463 ] } },
{ "type": "Feature", "properties": { "OBJECTID": 1229, "FID_": 1734, "Store_Name": "LEAMINGTON FOODS STORE", "Longitude": -87.762817, "Latitude": 41.880264, "Address": "5467 W Madison St", "Address_Li": null, "City": "Chicago", "State": "IL", "Zip5": 60644, "Zip4": 4030, "County": "COOK", "Type": "Grocery Store" }, "geometry": { "type": "Point", "coordinates": [ -87.762817, 41.880264 ] } },
{ "type": "Feature", "properties": { "OBJECTID": 1234, "FID_": 2061, "Store_Name": "LILY SUPERMARKET, INC.", "Longitude": -87.53521, "Latitude": 41.716534, "Address": "9863 S Ewing Ave", "Address_Li": null, "City": "Chicago", "State": "IL", "Zip5": 60617, "Zip4": 5564, "County": "COOK", "Type": "Supermarket" }, "geometry": { "type": "Point", "coordinates": [ -87.53521, 41.716534 ] } },
{ "type": "Feature", "properties": { "OBJECTID": 1235, "FID_": 1774, "Store_Name": "LINDO MICHOACAN", "Longitude": -87.707619, "Latitude": 41.968487, "Address": "3142 W Lawrence Ave", "Address_Li": null, "City": "Chicago", "State": "IL", "Zip5": 60625, "Zip4": 4228, "County": "COOK", "Type": "Supermarket" }, "geometry": { "type": "Point", "coordinates": [ -87.707619, 41.968487 ] } },
{ "type": "Feature", "properties": { "OBJECTID": 1237, "FID_": 1347, "Store_Name": "Little Lagos Inc", "Longitude": -87.666267, "Latitude": 41.998158, "Address": "1420 W Devon Ave", "Address_Li": null, "City": "Chicago", "State": "IL", "Zip5": 60660, "Zip4": 1312, "County": "COOK", "Type": "Grocery Store" }, "geometry": { "type": "Point", "coordinates": [ -87.666267, 41.998158 ] } },
{ "type": "Feature", "properties": { "OBJECTID": 1241, "FID_": 1545, "Store_Name": "Local Foods", "Longitude": -87.662727, "Latitude": 41.914425, "Address": "1427 W. Willow St", "Address_Li": null, "City": "Chicago", "State": "IL", "Zip5": 60642, "Zip4": 0, "County": "COOK", "Type": "Grocery Store" }, "geometry": { "type": "Point", "coordinates": [ -87.662727, 41.914425 ] } },
{ "type": "Feature", "properties": { "OBJECTID": 1249, "FID_": 484, "Store_Name": "Loomis Food Market", "Longitude": -87.659035, "Latitude": 41.768871, "Address": "6859 S Loomis Blvd", "Address_Li": null, "City": "Chicago", "State": "IL", "Zip5": 60636, "Zip4": 3403, "County": "COOK", "Type": "Grocery Store" }, "geometry": { "type": "Point", "coordinates": [ -87.659035, 41.768871 ] } },
{ "type": "Feature", "properties": { "OBJECTID": 1259, "FID_": 68, "Store_Name": "LOS POTRILLOS", "Longitude": -87.718414, "Latitude": 41.93924, "Address": "3624 W Belmont Ave", "Address_Li": null, "City": "Chicago", "State": "IL", "Zip5": 60618, "Zip4": 5304, "County": "COOK", "Type": "Grocery Store" }, "geometry": { "type": "Point", "coordinates": [ -87.718414, 41.93924 ] } },
{ "type": "Feature", "properties": { "OBJECTID": 1260, "FID_": 916, "Store_Name": "Los Primos Grocery", "Longitude": -87.70977, "Latitude": 41.961132, "Address": "3249 W Montrose Ave", "Address_Li": null, "City": "Chicago", "State": "IL", "Zip5": 60618, "Zip4": 1223, "County": "COOK", "Type": "Grocery Store" }, "geometry": { "type": "Point", "coordinates": [ -87.70977, 41.961132 ] } },
{ "type": "Feature", "properties": { "OBJECTID": 1264, "FID_": 74, "Store_Name": "LUCIANOS GROCERY - 18TH ST", "Longitude": -87.669411, "Latitude": 41.857777, "Address": "1714 W 18th St", "Address_Li": null, "City": "Chicago", "State": "IL", "Zip5": 60608, "Zip4": 1914, "County": "COOK", "Type": "Grocery Store" }, "geometry": { "type": "Point", "coordinates": [ -87.669411, 41.857777 ] } },
{ "type": "Feature", "properties": { "OBJECTID": 1284, "FID_": 1486, "Store_Name": "M L K Grocery, Inc.", "Longitude": -87.61554, "Latitude": 41.778, "Address": "6421 S King Dr", "Address_Li": "Ste C Jr", "City": "Chicago", "State": "IL", "Zip5": 60637, "Zip4": 4479, "County": "COOK", "Type": "Grocery Store" }, "geometry": { "type": "Point", "coordinates": [ -87.61554, 41.778 ] } },
{ "type": "Feature", "properties": { "OBJECTID": 1287, "FID_": 51, "Store_Name": "MACIAS PRODUCE INC", "Longitude": -87.551247, "Latitude": 41.73312, "Address": "8933 S Commercial Ave", "Address_Li": null, "City": "Chicago", "State": "IL", "Zip5": 60617, "Zip4": 3202, "County": "COOK", "Type": "Grocery Store" }, "geometry": { "type": "Point", "coordinates": [ -87.551247, 41.73312 ] } },
{ "type": "Feature", "properties": { "OBJECTID": 1297, "FID_": 1001, "Store_Name": "Makola African Supermarket 1", "Longitude": -87.655815, "Latitude": 41.965374, "Address": "1017 W Wilson Ave", "Address_Li": null, "City": "Chicago", "State": "IL", "Zip5": 60640, "Zip4": 5614, "County": "COOK", "Type": "Supermarket" }, "geometry": { "type": "Point", "coordinates": [ -87.655815, 41.965374 ] } },
{ "type": "Feature", "properties": { "OBJECTID": 1308, "FID_": 1005, "Store_Name": "Mariano's 8512", "Longitude": -87.630173, "Latitude": 41.859932, "Address": "1615 S Clark St", "Address_Li": null, "City": "Chicago", "State": "IL", "Zip5": 60616, "Zip4": 1107, "County": "COOK", "Type": "Supermarket" }, "geometry": { "type": "Point", "coordinates": [ -87.630173, 41.859932 ] } },
{ "type": "Feature", "properties": { "OBJECTID": 1310, "FID_": 1086, "Store_Name": "Mariano's 8515", "Longitude": -87.675034, "Latitude": 41.968845, "Address": "1800 W Lawrence Ave", "Address_Li": null, "City": "Chicago", "State": "IL", "Zip5": 60640, "Zip4": 4002, "County": "COOK", "Type": "Supermarket" }, "geometry": { "type": "Point", "coordinates": [ -87.675034, 41.968845 ] } },
{ "type": "Feature", "properties": { "OBJECTID": 1312, "FID_": 1130, "Store_Name": "Mariano's 8516", "Longitude": -87.668411, "Latitude": 41.919926, "Address": "2112 N Ashland Ave", "Address_Li": null, "City": "Chicago", "State": "IL", "Zip5": 60614, "Zip4": 0, "County": "COOK", "Type": "Supermarket" }, "geometry": { "type": "Point", "coordinates": [ -87.668411, 41.919926 ] } },
{ "type": "Feature", "properties": { "OBJECTID": 1315, "FID_": 1108, "Store_Name": "Mariano's 8520", "Longitude": -87.665672, "Latitude": 41.83614, "Address": "3145 S Ashland Ave", "Address_Li": null, "City": "Chicago", "State": "IL", "Zip5": 60608, "Zip4": 0, "County": "COOK", "Type": "Supermarket" }, "geometry": { "type": "Point", "coordinates": [ -87.665672, 41.83614 ] } },
{ "type": "Feature", "properties": { "OBJECTID": 1316, "FID_": 1087, "Store_Name": "Mariano's 8522", "Longitude": -87.654976, "Latitude": 41.97681, "Address": "5201 N Sheridan Rd", "Address_Li": null, "City": "Chicago", "State": "IL", "Zip5": 60640, "Zip4": 2512, "County": "COOK", "Type": "Supermarket" }, "geometry": { "type": "Point", "coordinates": [ -87.654976, 41.97681 ] } },
{ "type": "Feature", "properties": { "OBJECTID": 1317, "FID_": 1078, "Store_Name": "MARIANO'S 8527", "Longitude": -87.677963, "Latitude": 41.895901, "Address": "2021 W Chicago Ave", "Address_Li": null, "City": "Chicago", "State": "IL", "Zip5": 60622, "Zip4": 5549, "County": "COOK", "Type": "Supermarket" }, "geometry": { "type": "Point", "coordinates": [ -87.677963, 41.895901 ] } },
{ "type": "Feature", "properties": { "OBJECTID": 1318, "FID_": 1444, "Store_Name": "Mariano's 8534", "Longitude": -87.645645, "Latitude": 41.908092, "Address": "1500 N Clybourn Ave", "Address_Li": null, "City": "Chicago", "State": "IL", "Zip5": 60610, "Zip4": 1095, "County": "COOK", "Type": "Supermarket" }, "geometry": { "type": "Point", "coordinates": [ -87.645645, 41.908092 ] } },
{ "type": "Feature", "properties": { "OBJECTID": 1319, "FID_": 1636, "Store_Name": "Mariano's 8538", "Longitude": -87.644325, "Latitude": 41.937393, "Address": "3030 N Broadway St", "Address_Li": "Ste 100", "City": "Chicago", "State": "IL", "Zip5": 60657, "Zip4": 5316, "County": "COOK", "Type": "Supermarket" }, "geometry": { "type": "Point", "coordinates": [ -87.644325, 41.937393 ] } },
{ "type": "Feature", "properties": { "OBJECTID": 1320, "FID_": 1662, "Store_Name": "Mariano's 8539", "Longitude": -87.618263, "Latitude": 41.815712, "Address": "3857 S Dr Martin Luther Jr Dr", "Address_Li": null, "City": "Chicago", "State": "IL", "Zip5": 60653, "Zip4": 0, "County": "COOK", "Type": "Supermarket" }, "geometry": { "type": "Point", "coordinates": [ -87.618263, 41.815712 ] } },
{ "type": "Feature", "properties": { "OBJECTID": 1321, "FID_": 741, "Store_Name": "Mariano's Fresh Market 8503", "Longitude": -87.623444, "Latitude": 41.884922, "Address": "333 E Benton Pl", "Address_Li": "Ste 206", "City": "Chicago", "State": "IL", "Zip5": 60601, "Zip4": 7411, "County": "COOK", "Type": "Supermarket" }, "geometry": { "type": "Point", "coordinates": [ -87.623444, 41.884922 ] } },
{ "type": "Feature", "properties": { "OBJECTID": 1322, "FID_": 713, "Store_Name": "Mariano's Fresh Market 8504", "Longitude": -87.688225, "Latitude": 41.942596, "Address": "3350 N Western Ave", "Address_Li": null, "City": "Chicago", "State": "IL", "Zip5": 60618, "Zip4": 6213, "County": "COOK", "Type": "Supermarket" }, "geometry": { "type": "Point", "coordinates": [ -87.688225, 41.942596 ] } },
{ "type": "Feature", "properties": { "OBJECTID": 1323, "FID_": 869, "Store_Name": "Mariano's Fresh Market 8507", "Longitude": -87.758118, "Latitude": 41.979218, "Address": "5353 N Elston Ave", "Address_Li": null, "City": "Chicago", "State": "IL", "Zip5": 60630, "Zip4": 1610, "County": "COOK", "Type": "Supermarket" }, "geometry": { "type": "Point", "coordinates": [ -87.758118, 41.979218 ] } },
{ "type": "Feature", "properties": { "OBJECTID": 1324, "FID_": 878, "Store_Name": "Mariano's Fresh Market 8508", "Longitude": -87.647415, "Latitude": 41.880939, "Address": "40 S Halsted St", "Address_Li": null, "City": "Chicago", "State": "IL", "Zip5": 60661, "Zip4": 3506, "County": "COOK", "Type": "Supermarket" }, "geometry": { "type": "Point", "coordinates": [ -87.647415, 41.880939 ] } },
{ "type": "Feature", "properties": { "OBJECTID": 1326, "FID_": 1793, "Store_Name": "MARIBEL JIMENEZ, INC", "Longitude": -87.723434, "Latitude": 41.924583, "Address": "3850 W Fullerton Ave", "Address_Li": null, "City": "Chicago", "State": "IL", "Zip5": 60647, "Zip4": 2246, "County": "COOK", "Type": "Grocery Store" }, "geometry": { "type": "Point", "coordinates": [ -87.723434, 41.924583 ] } },
{ "type": "Feature", "properties": { "OBJECTID": 1329, "FID_": 1815, "Store_Name": "MARKET FRESH FINER FOODS II", "Longitude": -87.706619, "Latitude": 41.895607, "Address": "800 N Kedzie Ave", "Address_Li": "Ste 201", "City": "Chicago", "State": "IL", "Zip5": 60651, "Zip4": 4100, "County": "COOK", "Type": "Grocery Store" }, "geometry": { "type": "Point", "coordinates": [ -87.706619, 41.895607 ] } },
{ "type": "Feature", "properties": { "OBJECTID": 1339, "FID_": 1715, "Store_Name": "Martinez Supermarket Inc.", "Longitude": -87.651024, "Latitude": 41.834682, "Address": "3301 S Morgan St", "Address_Li": null, "City": "Chicago", "State": "IL", "Zip5": 60608, "Zip4": 6721, "County": "COOK", "Type": "Supermarket" }, "geometry": { "type": "Point", "coordinates": [ -87.651024, 41.834682 ] } },
{ "type": "Feature", "properties": { "OBJECTID": 1358, "FID_": 921, "Store_Name": "Mehrab Super Market", "Longitude": -87.691299, "Latitude": 41.997704, "Address": "2433 W Devon Ave", "Address_Li": null, "City": "Chicago", "State": "IL", "Zip5": 60659, "Zip4": 1914, "County": "COOK", "Type": "Supermarket" }, "geometry": { "type": "Point", "coordinates": [ -87.691299, 41.997704 ] } },
{ "type": "Feature", "properties": { "OBJECTID": 1372, "FID_": 1611, "Store_Name": "Middle Eastern Flair", "Longitude": -87.833199, "Latitude": 41.952084, "Address": "8235 W Irving Park Rd", "Address_Li": null, "City": "Chicago", "State": "IL", "Zip5": 60634, "Zip4": 1938, "County": "COOK", "Type": "Grocery Store" }, "geometry": { "type": "Point", "coordinates": [ -87.833199, 41.952084 ] } },
{ "type": "Feature", "properties": { "OBJECTID": 1401, "FID_": 427, "Store_Name": "Morelia Supermarket Inc", "Longitude": -87.690269, "Latitude": 42.014202, "Address": "7300 N Western Ave", "Address_Li": "Ste B", "City": "Chicago", "State": "IL", "Zip5": 60645, "Zip4": 1833, "County": "COOK", "Type": "Supermarket" }, "geometry": { "type": "Point", "coordinates": [ -87.690269, 42.014202 ] } },
{ "type": "Feature", "properties": { "OBJECTID": 1403, "FID_": 135, "Store_Name": "MORELIA SUPERMARKET INC. # 2", "Longitude": -87.747398, "Latitude": 41.931469, "Address": "4833 W Diversey Ave", "Address_Li": null, "City": "Chicago", "State": "IL", "Zip5": 60639, "Zip4": 1703, "County": "COOK", "Type": "Supermarket" }, "geometry": { "type": "Point", "coordinates": [ -87.747398, 41.931469 ] } },
{ "type": "Feature", "properties": { "OBJECTID": 1408, "FID_": 2, "Store_Name": "MORSE FOOD AND MEAT MARKET", "Longitude": -87.666962, "Latitude": 42.007919, "Address": "1430 W Morse Ave", "Address_Li": null, "City": "Chicago", "State": "IL", "Zip5": 60626, "Zip4": 3480, "County": "COOK", "Type": "Grocery Store" }, "geometry": { "type": "Point", "coordinates": [ -87.666962, 42.007919 ] } },
{ "type": "Feature", "properties": { "OBJECTID": 1416, "FID_": 18, "Store_Name": "MUNICIPAL FOODS", "Longitude": -87.691734, "Latitude": 41.902935, "Address": "2559 W Division St", "Address_Li": null, "City": "Chicago", "State": "IL", "Zip5": 60622, "Zip4": 2805, "County": "COOK", "Type": "Supermarket" }, "geometry": { "type": "Point", "coordinates": [ -87.691734, 41.902935 ] } },
{ "type": "Feature", "properties": { "OBJECTID": 1433, "FID_": 2057, "Store_Name": "NAYAB MART", "Longitude": -87.691872, "Latitude": 41.997692, "Address": "2449 W Devon Ave", "Address_Li": null, "City": "Chicago", "State": "IL", "Zip5": 60659, "Zip4": 1914, "County": "COOK", "Type": "Grocery Store" }, "geometry": { "type": "Point", "coordinates": [ -87.691872, 41.997692 ] } },
{ "type": "Feature", "properties": { "OBJECTID": 1439, "FID_": 1439, "Store_Name": "Fresh Thyme Farmers Market 107CHI", "Longitude": -87.680115, "Latitude": 41.926853, "Address": "2500 N Elston Ave", "Address_Li": null, "City": "Chicago", "State": "IL", "Zip5": 60647, "Zip4": 2004, "County": "COOK", "Type": "Grocery Store" }, "geometry": { "type": "Point", "coordinates": [ -87.680115, 41.926853 ] } },
{ "type": "Feature", "properties": { "OBJECTID": 1486, "FID_": 301, "Store_Name": "North & Pulaski Fresh Market", "Longitude": -87.723267, "Latitude": 41.909958, "Address": "3850 W North Ave", "Address_Li": null, "City": "Chicago", "State": "IL", "Zip5": 60647, "Zip4": 4641, "County": "COOK", "Type": "Supermarket" }, "geometry": { "type": "Point", "coordinates": [ -87.723267, 41.909958 ] } },
{ "type": "Feature", "properties": { "OBJECTID": 1488, "FID_": 2141, "Store_Name": "NORTH WATER MARKET INC", "Longitude": -87.695786, "Latitude": 41.997711, "Address": "2626 W Devon Ave", "Address_Li": null, "City": "Chicago", "State": "IL", "Zip5": 60659, "Zip4": 1804, "County": "COOK", "Type": "Grocery Store" }, "geometry": { "type": "Point", "coordinates": [ -87.695786, 41.997711 ] } },
{ "type": "Feature", "properties": { "OBJECTID": 1518, "FID_": 553, "Store_Name": "PAR BIRDIE FOODS", "Longitude": -87.686455, "Latitude": 41.997837, "Address": "2234 W Devon Ave", "Address_Li": null, "City": "Chicago", "State": "IL", "Zip5": 60659, "Zip4": 2043, "County": "COOK", "Type": "Grocery Store" }, "geometry": { "type": "Point", "coordinates": [ -87.686455, 41.997837 ] } },
{ "type": "Feature", "properties": { "OBJECTID": 1520, "FID_": 2003, "Store_Name": "PARADISE SUPERMARKET", "Longitude": -87.605095, "Latitude": 41.747471, "Address": "8101 S Cottage Grove Ave", "Address_Li": null, "City": "Chicago", "State": "IL", "Zip5": 60619, "Zip4": 5103, "County": "COOK", "Type": "Supermarket" }, "geometry": { "type": "Point", "coordinates": [ -87.605095, 41.747471 ] } },
{ "type": "Feature", "properties": { "OBJECTID": 1525, "FID_": 1470, "Store_Name": "Park To Shop Supermarket", "Longitude": -87.642006, "Latitude": 41.848705, "Address": "2425 S Wallace St", "Address_Li": null, "City": "Chicago", "State": "IL", "Zip5": 60616, "Zip4": 1855, "County": "COOK", "Type": "Supermarket" }, "geometry": { "type": "Point", "coordinates": [ -87.642006, 41.848705 ] } },
{ "type": "Feature", "properties": { "OBJECTID": 1533, "FID_": 2148, "Store_Name": "PATEL BROTHERS", "Longitude": -87.695335, "Latitude": 41.997688, "Address": "2610 W Devon Ave", "Address_Li": null, "City": "Chicago", "State": "IL", "Zip5": 60659, "Zip4": 1804, "County": "COOK", "Type": "Grocery Store" }, "geometry": { "type": "Point", "coordinates": [ -87.695335, 41.997688 ] } },
{ "type": "Feature", "properties": { "OBJECTID": 1536, "FID_": 675, "Store_Name": "PAULINA SUPERMARKET INC", "Longitude": -87.673149, "Latitude": 42.019814, "Address": "7622 N Paulina St", "Address_Li": null, "City": "Chicago", "State": "IL", "Zip5": 60626, "Zip4": 1018, "County": "COOK", "Type": "Supermarket" }, "geometry": { "type": "Point", "coordinates": [ -87.673149, 42.019814 ] } },
{ "type": "Feature", "properties": { "OBJECTID": 1548, "FID_": 358, "Store_Name": "Perumex Supermarket inc.", "Longitude": -87.756821, "Latitude": 41.931358, "Address": "5217 W Diversey Ave", "Address_Li": null, "City": "Chicago", "State": "IL", "Zip5": 60639, "Zip4": 1501, "County": "COOK", "Type": "Supermarket" }, "geometry": { "type": "Point", "coordinates": [ -87.756821, 41.931358 ] } },
{ "type": "Feature", "properties": { "OBJECTID": 1550, "FID_": 42, "Store_Name": "Pete's Fresh Market", "Longitude": -87.536911, "Latitude": 41.680984, "Address": "3554 E 118th St", "Address_Li": null, "City": "Chicago", "State": "IL", "Zip5": 60617, "Zip4": 7314, "County": "COOK", "Type": "Supermarket" }, "geometry": { "type": "Point", "coordinates": [ -87.536911, 41.680984 ] } },
{ "type": "Feature", "properties": { "OBJECTID": 1551, "FID_": 139, "Store_Name": "Pete's Fresh Market", "Longitude": -87.688812, "Latitude": 41.852047, "Address": "2526 W Cermak Rd", "Address_Li": null, "City": "Chicago", "State": "IL", "Zip5": 60608, "Zip4": 3710, "County": "COOK", "Type": "Supermarket" }, "geometry": { "type": "Point", "coordinates": [ -87.688812, 41.852047 ] } },
{ "type": "Feature", "properties": { "OBJECTID": 1552, "FID_": 1975, "Store_Name": "Pete's Fresh Market", "Longitude": -87.703995, "Latitude": 41.807789, "Address": "4700 S Kedzie Ave", "Address_Li": null, "City": "Chicago", "State": "IL", "Zip5": 60632, "Zip4": 3002, "County": "COOK", "Type": "Supermarket" }, "geometry": { "type": "Point", "coordinates": [ -87.703995, 41.807789 ] } },
{ "type": "Feature", "properties": { "OBJECTID": 1553, "FID_": 2026, "Store_Name": "Pete's Fresh Market", "Longitude": -87.72377, "Latitude": 41.814407, "Address": "4343 S Pulaski Rd", "Address_Li": null, "City": "Chicago", "State": "IL", "Zip5": 60632, "Zip4": 4008, "County": "COOK", "Type": "Supermarket" }, "geometry": { "type": "Point", "coordinates": [ -87.72377, 41.814407 ] } },
{ "type": "Feature", "properties": { "OBJECTID": 1554, "FID_": 1104, "Store_Name": "Pete's Fresh Market", "Longitude": -87.684799, "Latitude": 41.881165, "Address": "2333 W Madison St", "Address_Li": null, "City": "Chicago", "State": "IL", "Zip5": 60612, "Zip4": 2227, "County": "COOK", "Type": "Supermarket" }, "geometry": { "type": "Point", "coordinates": [ -87.684799, 41.881165 ] } },
{ "type": "Feature", "properties": { "OBJECTID": 1555, "FID_": 1738, "Store_Name": "Pete's Fresh Market", "Longitude": -87.703461, "Latitude": 41.78886, "Address": "5724 S Kedzie Ave", "Address_Li": null, "City": "Chicago", "State": "IL", "Zip5": 60629, "Zip4": 2408, "County": "COOK", "Type": "Supermarket" }, "geometry": { "type": "Point", "coordinates": [ -87.703461, 41.78886 ] } },
{ "type": "Feature", "properties": { "OBJECTID": 1557, "FID_": 2072, "Store_Name": "PETE'S PRODUCE", "Longitude": -87.586586, "Latitude": 41.736855, "Address": "1543 E 87th St", "Address_Li": null, "City": "Chicago", "State": "IL", "Zip5": 60619, "Zip4": 6548, "County": "COOK", "Type": "Grocery Store" }, "geometry": { "type": "Point", "coordinates": [ -87.586586, 41.736855 ] } },
{ "type": "Feature", "properties": { "OBJECTID": 1559, "FID_": 2073, "Store_Name": "PETE'S PRODUCE", "Longitude": -87.658607, "Latitude": 41.735806, "Address": "1411 W 87th St", "Address_Li": null, "City": "Chicago", "State": "IL", "Zip5": 60620, "Zip4": 4013, "County": "COOK", "Type": "Grocery Store" }, "geometry": { "type": "Point", "coordinates": [ -87.658607, 41.735806 ] } },
{ "type": "Feature", "properties": { "OBJECTID": 1574, "FID_": 1059, "Store_Name": "Plenty", "Longitude": -87.678291, "Latitude": 41.903183, "Address": "2036 W Division St", "Address_Li": null, "City": "Chicago", "State": "IL", "Zip5": 60622, "Zip4": 3154, "County": "COOK", "Type": "Grocery Store" }, "geometry": { "type": "Point", "coordinates": [ -87.678291, 41.903183 ] } },
{ "type": "Feature", "properties": { "OBJECTID": 1576, "FID_": 978, "Store_Name": "Plum Market", "Longitude": -87.634468, "Latitude": 41.904831, "Address": "1233 N Wells St", "Address_Li": null, "City": "Chicago", "State": "IL", "Zip5": 60610, "Zip4": 1905, "County": "COOK", "Type": "Grocery Store" }, "geometry": { "type": "Point", "coordinates": [ -87.634468, 41.904831 ] } },
{ "type": "Feature", "properties": { "OBJECTID": 1578, "FID_": 2172, "Store_Name": "POTASH BROS. SUPER MART", "Longitude": -87.628227, "Latitude": 41.898792, "Address": "875 N State St", "Address_Li": null, "City": "Chicago", "State": "IL", "Zip5": 60610, "Zip4": 3307, "County": "COOK", "Type": "Supermarket" }, "geometry": { "type": "Point", "coordinates": [ -87.628227, 41.898792 ] } },
{ "type": "Feature", "properties": { "OBJECTID": 1579, "FID_": 678, "Store_Name": "Potash Markets", "Longitude": -87.631561, "Latitude": 41.909924, "Address": "1525 N Clark St", "Address_Li": null, "City": "Chicago", "State": "IL", "Zip5": 60610, "Zip4": 8052, "County": "COOK", "Type": "Supermarket" }, "geometry": { "type": "Point", "coordinates": [ -87.631561, 41.909924 ] } },
{ "type": "Feature", "properties": { "OBJECTID": 1594, "FID_": 933, "Store_Name": "Que Rico Supermercado 1", "Longitude": -87.715492, "Latitude": 41.917374, "Address": "3552 W Armitage Ave", "Address_Li": null, "City": "Chicago", "State": "IL", "Zip5": 60647, "Zip4": 3609, "County": "COOK", "Type": "Supermarket" }, "geometry": { "type": "Point", "coordinates": [ -87.715492, 41.917374 ] } },
{ "type": "Feature", "properties": { "OBJECTID": 1611, "FID_": 1971, "Store_Name": "RICHWELL MARKET", "Longitude": -87.638855, "Latitude": 41.856312, "Address": "1835 S Canal St", "Address_Li": null, "City": "Chicago", "State": "IL", "Zip5": 60616, "Zip4": 1522, "County": "COOK", "Type": "Grocery Store" }, "geometry": { "type": "Point", "coordinates": [ -87.638855, 41.856312 ] } },
{ "type": "Feature", "properties": { "OBJECTID": 1627, "FID_": 1627, "Store_Name": "Seafood City Supermarket 25", "Longitude": -87.746696, "Latitude": 41.972172, "Address": "5033 N Elston Ave", "Address_Li": null, "City": "Chicago", "State": "IL", "Zip5": 60630, "Zip4": 1707, "County": "COOK", "Type": "Supermarket" }, "geometry": { "type": "Point", "coordinates": [ -87.746696, 41.972172 ] } },
{ "type": "Feature", "properties": { "OBJECTID": 1628, "FID_": 756, "Store_Name": "ROGERS PARK FRUIT MARKET", "Longitude": -87.675148, "Latitude": 42.015968, "Address": "7401 N Clark St", "Address_Li": null, "City": "Chicago", "State": "IL", "Zip5": 60626, "Zip4": 1660, "County": "COOK", "Type": "Grocery Store" }, "geometry": { "type": "Point", "coordinates": [ -87.675148, 42.015968 ] } },
{ "type": "Feature", "properties": { "OBJECTID": 1637, "FID_": 616, "Store_Name": "ROSEBUD FARM", "Longitude": -87.609856, "Latitude": 41.659073, "Address": "525 E 130th St", "Address_Li": null, "City": "Chicago", "State": "IL", "Zip5": 60628, "Zip4": 6903, "County": "COOK", "Type": "Grocery Store" }, "geometry": { "type": "Point", "coordinates": [ -87.609856, 41.659073 ] } },
{ "type": "Feature", "properties": { "OBJECTID": 1681, "FID_": 1060, "Store_Name": "Sahar International Supermarket", "Longitude": -87.708466, "Latitude": 41.969555, "Address": "4851 N Kedzie Ave", "Address_Li": null, "City": "Chicago", "State": "IL", "Zip5": 60625, "Zip4": 5206, "County": "COOK", "Type": "Supermarket" }, "geometry": { "type": "Point", "coordinates": [ -87.708466, 41.969555 ] } },
{ "type": "Feature", "properties": { "OBJECTID": 1697, "FID_": 739, "Store_Name": "Save  A  Lot", "Longitude": -87.723442, "Latitude": 41.851528, "Address": "3939 W Ogden", "Address_Li": null, "City": "Chicago", "State": "IL", "Zip5": 60623, "Zip4": 0, "County": "COOK", "Type": "Grocery Store" }, "geometry": { "type": "Point", "coordinates": [ -87.723442, 41.851528 ] } },
{ "type": "Feature", "properties": { "OBJECTID": 1698, "FID_": 1992, "Store_Name": "SAVE A LOT #858 0858", "Longitude": -87.554619, "Latitude": 41.744637, "Address": "2858 E 83rd St", "Address_Li": null, "City": "Chicago", "State": "IL", "Zip5": 60617, "Zip4": 2107, "County": "COOK", "Type": "Grocery Store" }, "geometry": { "type": "Point", "coordinates": [ -87.554619, 41.744637 ] } },
{ "type": "Feature", "properties": { "OBJECTID": 1699, "FID_": 1248, "Store_Name": "Save A Lot 851", "Longitude": -87.6427, "Latitude": 41.69944, "Address": "10700 S Halsted St", "Address_Li": null, "City": "Chicago", "State": "IL", "Zip5": 60628, "Zip4": 3108, "County": "COOK", "Type": "Grocery Store" }, "geometry": { "type": "Point", "coordinates": [ -87.6427, 41.69944 ] } },
{ "type": "Feature", "properties": { "OBJECTID": 1700, "FID_": 1987, "Store_Name": "SAVE A LOT 859", "Longitude": -87.725548, "Latitude": 41.875072, "Address": "420 S Pulaski Rd", "Address_Li": null, "City": "Chicago", "State": "IL", "Zip5": 60624, "Zip4": 3151, "County": "COOK", "Type": "Grocery Store" }, "geometry": { "type": "Point", "coordinates": [ -87.725548, 41.875072 ] } },
{ "type": "Feature", "properties": { "OBJECTID": 1701, "FID_": 1826, "Store_Name": "SAVE-A-LOT", "Longitude": -87.709343, "Latitude": 41.895576, "Address": "3310 Chicago Rd", "Address_Li": null, "City": "Chicago", "State": "IL", "Zip5": 60411, "Zip4": 5423, "County": "COOK", "Type": "Grocery Store" }, "geometry": { "type": "Point", "coordinates": [ -87.709343, 41.895576 ] } },
{ "type": "Feature", "properties": { "OBJECTID": 1702, "FID_": 1954, "Store_Name": "SAVE-A-LOT  856", "Longitude": -87.764847, "Latitude": 41.909332, "Address": "5555 W North Ave", "Address_Li": null, "City": "Chicago", "State": "IL", "Zip5": 60639, "Zip4": 4251, "County": "COOK", "Type": "Grocery Store" }, "geometry": { "type": "Point", "coordinates": [ -87.764847, 41.909332 ] } },
{ "type": "Feature", "properties": { "OBJECTID": 1703, "FID_": 1955, "Store_Name": "SAVE-A-LOT  860", "Longitude": -87.7341, "Latitude": 41.778515, "Address": "4439 W 63rd St", "Address_Li": null, "City": "Chicago", "State": "IL", "Zip5": 60629, "Zip4": 5548, "County": "COOK", "Type": "Grocery Store" }, "geometry": { "type": "Point", "coordinates": [ -87.7341, 41.778515 ] } },
{ "type": "Feature", "properties": { "OBJECTID": 1706, "FID_": 1947, "Store_Name": "SAVE-A-LOT 852", "Longitude": -87.586319, "Latitude": 41.763268, "Address": "7240 S Stony Island Ave", "Address_Li": null, "City": "Chicago", "State": "IL", "Zip5": 60649, "Zip4": 2838, "County": "COOK", "Type": "Grocery Store" }, "geometry": { "type": "Point", "coordinates": [ -87.586319, 41.763268 ] } },
{ "type": "Feature", "properties": { "OBJECTID": 1707, "FID_": 1962, "Store_Name": "SAVE-A-LOT 854", "Longitude": -87.644112, "Latitude": 41.750454, "Address": "7908 S HALSTED ST", "Address_Li": null, "City": "Chicago", "State": "IL", "Zip5": 60620, "Zip4": 2540, "County": "COOK", "Type": "Grocery Store" }, "geometry": { "type": "Point", "coordinates": [ -87.644112, 41.750454 ] } },
{ "type": "Feature", "properties": { "OBJECTID": 1708, "FID_": 2016, "Store_Name": "SAVE-A-LOT 862", "Longitude": -87.606499, "Latitude": 41.809311, "Address": "4701 S Cottage Grove Ave", "Address_Li": null, "City": "Chicago", "State": "IL", "Zip5": 60615, "Zip4": 1611, "County": "COOK", "Type": "Grocery Store" }, "geometry": { "type": "Point", "coordinates": [ -87.606499, 41.809311 ] } },
{ "type": "Feature", "properties": { "OBJECTID": 1710, "FID_": 632, "Store_Name": "SAVE-A-LOT 882", "Longitude": -87.617386, "Latitude": 41.780254, "Address": "344 E 63rd St", "Address_Li": null, "City": "Chicago", "State": "IL", "Zip5": 60637, "Zip4": 3155, "County": "COOK", "Type": "Grocery Store" }, "geometry": { "type": "Point", "coordinates": [ -87.617386, 41.780254 ] } },
{ "type": "Feature", "properties": { "OBJECTID": 1712, "FID_": 49, "Store_Name": "SAVEWAY FOOD", "Longitude": -87.61927, "Latitude": 41.816559, "Address": "313 E 43rd St", "Address_Li": null, "City": "Chicago", "State": "IL", "Zip5": 60653, "Zip4": 3312, "County": "COOK", "Type": "Grocery Store" }, "geometry": { "type": "Point", "coordinates": [ -87.61927, 41.816559 ] } },
{ "type": "Feature", "properties": { "OBJECTID": 1743, "FID_": 1216, "Store_Name": "Shop & Save Market 2100", "Longitude": -87.787537, "Latitude": 41.995937, "Address": "6312 N Nagle Ave", "Address_Li": null, "City": "Chicago", "State": "IL", "Zip5": 60646, "Zip4": 3614, "County": "COOK", "Type": "Grocery Store" }, "geometry": { "type": "Point", "coordinates": [ -87.787537, 41.995937 ] } },
{ "type": "Feature", "properties": { "OBJECTID": 1747, "FID_": 503, "Store_Name": "Shop & Save Market 5", "Longitude": -87.759682, "Latitude": 41.79607, "Address": "5829 S Archer Ave", "Address_Li": null, "City": "Chicago", "State": "IL", "Zip5": 60638, "Zip4": 1646, "County": "COOK", "Type": "Grocery Store" }, "geometry": { "type": "Point", "coordinates": [ -87.759682, 41.79607 ] } },
{ "type": "Feature", "properties": { "OBJECTID": 1783, "FID_": 346, "Store_Name": "Spinneys Supermarket", "Longitude": -87.697792, "Latitude": 41.936848, "Address": "3036 N California Ave", "Address_Li": null, "City": "Chicago", "State": "IL", "Zip5": 60618, "Zip4": 7006, "County": "COOK", "Type": "Supermarket" }, "geometry": { "type": "Point", "coordinates": [ -87.697792, 41.936848 ] } },
{ "type": "Feature", "properties": { "OBJECTID": 1787, "FID_": 2070, "Store_Name": "Stanleys", "Longitude": -87.661797, "Latitude": 41.91, "Address": "1558 N Elston Ave", "Address_Li": null, "City": "Chicago", "State": "IL", "Zip5": 60622, "Zip4": 2420, "County": "COOK", "Type": "Grocery Store" }, "geometry": { "type": "Point", "coordinates": [ -87.661797, 41.91 ] } },
{ "type": "Feature", "properties": { "OBJECTID": 1788, "FID_": 743, "Store_Name": "Star Light Food Market II", "Longitude": -87.631851, "Latitude": 41.842133, "Address": "2832 S Wentworth Ave", "Address_Li": null, "City": "Chicago", "State": "IL", "Zip5": 60616, "Zip4": 2706, "County": "COOK", "Type": "Grocery Store" }, "geometry": { "type": "Point", "coordinates": [ -87.631851, 41.842133 ] } },
{ "type": "Feature", "properties": { "OBJECTID": 1804, "FID_": 217, "Store_Name": "Strack & Van Til 8757", "Longitude": -87.68338, "Latitude": 41.929207, "Address": "2627 N Elston Ave", "Address_Li": null, "City": "Chicago", "State": "IL", "Zip5": 60647, "Zip4": 2018, "County": "COOK", "Type": "Grocery Store" }, "geometry": { "type": "Point", "coordinates": [ -87.68338, 41.929207 ] } },
{ "type": "Feature", "properties": { "OBJECTID": 1826, "FID_": 546, "Store_Name": "SUPERMARKET & TAQUERIA CARO", "Longitude": -87.746918, "Latitude": 41.807526, "Address": "4937 W 47th St", "Address_Li": null, "City": "Chicago", "State": "IL", "Zip5": 60638, "Zip4": 2041, "County": "COOK", "Type": "Supermarket" }, "geometry": { "type": "Point", "coordinates": [ -87.746918, 41.807526 ] } },
{ "type": "Feature", "properties": { "OBJECTID": 1828, "FID_": 1029, "Store_Name": "Supermarket La Familia 1", "Longitude": -87.683311, "Latitude": 41.850266, "Address": "2300 W 23rd St", "Address_Li": "Ste 1", "City": "Chicago", "State": "IL", "Zip5": 60608, "Zip4": 3844, "County": "COOK", "Type": "Supermarket" }, "geometry": { "type": "Point", "coordinates": [ -87.683311, 41.850266 ] } },
{ "type": "Feature", "properties": { "OBJECTID": 1832, "FID_": 157, "Store_Name": "Supermercado Alexs", "Longitude": -87.728149, "Latitude": 41.836868, "Address": "4134 W 31st St", "Address_Li": null, "City": "Chicago", "State": "IL", "Zip5": 60623, "Zip4": 4803, "County": "COOK", "Type": "Supermarket" }, "geometry": { "type": "Point", "coordinates": [ -87.728149, 41.836868 ] } },
{ "type": "Feature", "properties": { "OBJECTID": 1835, "FID_": 318, "Store_Name": "Supermercado Amigo", "Longitude": -87.67411, "Latitude": 42.009769, "Address": "7023 N Clark St", "Address_Li": null, "City": "Chicago", "State": "IL", "Zip5": 60626, "Zip4": 2405, "County": "COOK", "Type": "Supermarket" }, "geometry": { "type": "Point", "coordinates": [ -87.67411, 42.009769 ] } },
{ "type": "Feature", "properties": { "OBJECTID": 1837, "FID_": 1174, "Store_Name": "Supermercado Antonio's Corp", "Longitude": -87.709892, "Latitude": 41.843277, "Address": "2656 S Homan Ave", "Address_Li": null, "City": "Chicago", "State": "IL", "Zip5": 60623, "Zip4": 4615, "County": "COOK", "Type": "Supermarket" }, "geometry": { "type": "Point", "coordinates": [ -87.709892, 41.843277 ] } },
{ "type": "Feature", "properties": { "OBJECTID": 1838, "FID_": 1986, "Store_Name": "SUPERMERCADO BARRERA", "Longitude": -87.698685, "Latitude": 41.923695, "Address": "2336 N Milwaukee Ave", "Address_Li": null, "City": "Chicago", "State": "IL", "Zip5": 60647, "Zip4": 2909, "County": "COOK", "Type": "Supermarket" }, "geometry": { "type": "Point", "coordinates": [ -87.698685, 41.923695 ] } },
{ "type": "Feature", "properties": { "OBJECTID": 1839, "FID_": 2050, "Store_Name": "SUPERMERCADO CARRETA, INC.", "Longitude": -87.673523, "Latitude": 42.006821, "Address": "6908 N Clark St", "Address_Li": null, "City": "Chicago", "State": "IL", "Zip5": 60626, "Zip4": 3209, "County": "COOK", "Type": "Supermarket" }, "geometry": { "type": "Point", "coordinates": [ -87.673523, 42.006821 ] } },
{ "type": "Feature", "properties": { "OBJECTID": 1840, "FID_": 515, "Store_Name": "Supermercado Castillos Inc", "Longitude": -87.692451, "Latitude": 41.786465, "Address": "2732 W 59th St", "Address_Li": null, "City": "Chicago", "State": "IL", "Zip5": 60629, "Zip4": 1508, "County": "COOK", "Type": "Supermarket" }, "geometry": { "type": "Point", "coordinates": [ -87.692451, 41.786465 ] } },
{ "type": "Feature", "properties": { "OBJECTID": 1841, "FID_": 1792, "Store_Name": "SUPERMERCADO CHAPULTEPEC #2", "Longitude": -87.687126, "Latitude": 41.817593, "Address": "4159 S Campbell Ave", "Address_Li": null, "City": "Chicago", "State": "IL", "Zip5": 60632, "Zip4": 1121, "County": "COOK", "Type": "Supermarket" }, "geometry": { "type": "Point", "coordinates": [ -87.687126, 41.817593 ] } },
{ "type": "Feature", "properties": { "OBJECTID": 1842, "FID_": 692, "Store_Name": "SUPERMERCADO CUAUHTEMOC", "Longitude": -87.705162, "Latitude": 41.846191, "Address": "2506 S Kedzie Ave", "Address_Li": null, "City": "Chicago", "State": "IL", "Zip5": 60623, "Zip4": 4007, "County": "COOK", "Type": "Supermarket" }, "geometry": { "type": "Point", "coordinates": [ -87.705162, 41.846191 ] } },
{ "type": "Feature", "properties": { "OBJECTID": 1843, "FID_": 1855, "Store_Name": "SUPERMERCADO EL CUBANO INC", "Longitude": -87.664803, "Latitude": 41.803802, "Address": "4939 S Ashland Ave", "Address_Li": null, "City": "Chicago", "State": "IL", "Zip5": 60609, "Zip4": 4912, "County": "COOK", "Type": "Supermarket" }, "geometry": { "type": "Point", "coordinates": [ -87.664803, 41.803802 ] } },
{ "type": "Feature", "properties": { "OBJECTID": 1846, "FID_": 1761, "Store_Name": "SUPERMERCADO EL GUERO 10", "Longitude": -87.693657, "Latitude": 41.820545, "Address": "4023 S Archer Ave", "Address_Li": null, "City": "Chicago", "State": "IL", "Zip5": 60632, "Zip4": 1139, "County": "COOK", "Type": "Supermarket" }, "geometry": { "type": "Point", "coordinates": [ -87.693657, 41.820545 ] } },
{ "type": "Feature", "properties": { "OBJECTID": 1850, "FID_": 727, "Store_Name": "SUPERMERCADO EL GUERO NO  1", "Longitude": -87.66758, "Latitude": 41.808544, "Address": "1701 W 47th St", "Address_Li": null, "City": "Chicago", "State": "IL", "Zip5": 60609, "Zip4": 3823, "County": "COOK", "Type": "Supermarket" }, "geometry": { "type": "Point", "coordinates": [ -87.66758, 41.808544 ] } },
{ "type": "Feature", "properties": { "OBJECTID": 1851, "FID_": 2040, "Store_Name": "Supermercado El Tapatio", "Longitude": -87.535301, "Latitude": 41.708092, "Address": "10300 S Ewing Ave", "Address_Li": null, "City": "Chicago", "State": "IL", "Zip5": 60617, "Zip4": 6027, "County": "COOK", "Type": "Supermarket" }, "geometry": { "type": "Point", "coordinates": [ -87.535301, 41.708092 ] } },
{ "type": "Feature", "properties": { "OBJECTID": 1852, "FID_": 1098, "Store_Name": "Supermercado El Taxquenito", "Longitude": -87.783394, "Latitude": 41.921982, "Address": "6309 W Grand Ave", "Address_Li": null, "City": "Chicago", "State": "IL", "Zip5": 60639, "Zip4": 2615, "County": "COOK", "Type": "Supermarket" }, "geometry": { "type": "Point", "coordinates": [ -87.783394, 41.921982 ] } },
{ "type": "Feature", "properties": { "OBJECTID": 1853, "FID_": 1837, "Store_Name": "SUPERMERCADO ELGUERO #8, INC", "Longitude": -87.678444, "Latitude": 41.852104, "Address": "2101 W Cermak Rd", "Address_Li": null, "City": "Chicago", "State": "IL", "Zip5": 60608, "Zip4": 4005, "County": "COOK", "Type": "Supermarket" }, "geometry": { "type": "Point", "coordinates": [ -87.678444, 41.852104 ] } },
{ "type": "Feature", "properties": { "OBJECTID": 1854, "FID_": 347, "Store_Name": "Supermercado Gelas", "Longitude": -87.717064, "Latitude": 41.842445, "Address": "2701 S Lawndale Ave", "Address_Li": null, "City": "Chicago", "State": "IL", "Zip5": 60623, "Zip4": 4546, "County": "COOK", "Type": "Supermarket" }, "geometry": { "type": "Point", "coordinates": [ -87.717064, 41.842445 ] } },
{ "type": "Feature", "properties": { "OBJECTID": 1855, "FID_": 593, "Store_Name": "Supermercado Gonzalez Chicago Inc", "Longitude": -87.679741, "Latitude": 41.8531, "Address": "2158 W 21st Pl", "Address_Li": null, "City": "Chicago", "State": "IL", "Zip5": 60608, "Zip4": 4010, "County": "COOK", "Type": "Supermarket" }, "geometry": { "type": "Point", "coordinates": [ -87.679741, 41.8531 ] } },
{ "type": "Feature", "properties": { "OBJECTID": 1856, "FID_": 532, "Store_Name": "Supermercado Guerrero", "Longitude": -87.702835, "Latitude": 41.851856, "Address": "3100 W Cermak Rd", "Address_Li": null, "City": "Chicago", "State": "IL", "Zip5": 60623, "Zip4": 3448, "County": "COOK", "Type": "Supermarket" }, "geometry": { "type": "Point", "coordinates": [ -87.702835, 41.851856 ] } },
{ "type": "Feature", "properties": { "OBJECTID": 1857, "FID_": 1938, "Store_Name": "SUPERMERCADO LA CHIQUITA", "Longitude": -87.66291, "Latitude": 41.866821, "Address": "133 W Roosevelt Rd", "Address_Li": null, "City": "Chicago", "State": "IL", "Zip5": 60185, "Zip4": 3765, "County": "DU PAGE", "Type": "Supermarket" }, "geometry": { "type": "Point", "coordinates": [ -87.66291, 41.866821 ] } },
{ "type": "Feature", "properties": { "OBJECTID": 1858, "FID_": 1798, "Store_Name": "SUPERMERCADO LA CHIQUITA #4", "Longitude": -87.724457, "Latitude": 41.843853, "Address": "2623 S Pulaski Rd", "Address_Li": null, "City": "Chicago", "State": "IL", "Zip5": 60623, "Zip4": 4410, "County": "COOK", "Type": "Supermarket" }, "geometry": { "type": "Point", "coordinates": [ -87.724457, 41.843853 ] } },
{ "type": "Feature", "properties": { "OBJECTID": 1859, "FID_": 1022, "Store_Name": "Supermercado La Fiesta", "Longitude": -87.726868, "Latitude": 41.778683, "Address": "4156 W 63rd St", "Address_Li": null, "City": "Chicago", "State": "IL", "Zip5": 60629, "Zip4": 5035, "County": "COOK", "Type": "Supermarket" }, "geometry": { "type": "Point", "coordinates": [ -87.726868, 41.778683 ] } },
{ "type": "Feature", "properties": { "OBJECTID": 1860, "FID_": 882, "Store_Name": "Supermercado La Gloria", "Longitude": -87.704338, "Latitude": 41.818542, "Address": "4117 S Kedzie Ave", "Address_Li": null, "City": "Chicago", "State": "IL", "Zip5": 60632, "Zip4": 2413, "County": "COOK", "Type": "Supermarket" }, "geometry": { "type": "Point", "coordinates": [ -87.704338, 41.818542 ] } },
{ "type": "Feature", "properties": { "OBJECTID": 1861, "FID_": 1170, "Store_Name": "Supermercado La Gloria 4 Inc", "Longitude": -87.726425, "Latitude": 41.801247, "Address": "5050 S Archer Ave", "Address_Li": null, "City": "Chicago", "State": "IL", "Zip5": 60632, "Zip4": 4509, "County": "COOK", "Type": "Supermarket" }, "geometry": { "type": "Point", "coordinates": [ -87.726425, 41.801247 ] } },
{ "type": "Feature", "properties": { "OBJECTID": 1862, "FID_": 925, "Store_Name": "Supermercado La Tapatia", "Longitude": -87.70031, "Latitude": 41.849899, "Address": "2300 S Sacramento Ave", "Address_Li": null, "City": "Chicago", "State": "IL", "Zip5": 60623, "Zip4": 3461, "County": "COOK", "Type": "Supermarket" }, "geometry": { "type": "Point", "coordinates": [ -87.70031, 41.849899 ] } },
{ "type": "Feature", "properties": { "OBJECTID": 1863, "FID_": 156, "Store_Name": "Supermercado La Victoria", "Longitude": -87.721481, "Latitude": 41.778652, "Address": "3927 W 63rd St", "Address_Li": null, "City": "Chicago", "State": "IL", "Zip5": 60629, "Zip4": 4603, "County": "COOK", "Type": "Supermarket" }, "geometry": { "type": "Point", "coordinates": [ -87.721481, 41.778652 ] } },
{ "type": "Feature", "properties": { "OBJECTID": 1865, "FID_": 1513, "Store_Name": "Supermercado Los Cuates", "Longitude": -87.735809, "Latitude": 41.771198, "Address": "4531 W Marquette Rd", "Address_Li": null, "City": "Chicago", "State": "IL", "Zip5": 60629, "Zip4": 5626, "County": "COOK", "Type": "Supermarket" }, "geometry": { "type": "Point", "coordinates": [ -87.735809, 41.771198 ] } },
{ "type": "Feature", "properties": { "OBJECTID": 1866, "FID_": 2116, "Store_Name": "SUPERMERCADO MEXICO", "Longitude": -87.551216, "Latitude": 41.730972, "Address": "9029 S Commercial Ave", "Address_Li": null, "City": "Chicago", "State": "IL", "Zip5": 60617, "Zip4": 4304, "County": "COOK", "Type": "Supermarket" }, "geometry": { "type": "Point", "coordinates": [ -87.551216, 41.730972 ] } },
{ "type": "Feature", "properties": { "OBJECTID": 1868, "FID_": 492, "Store_Name": "Supermercado Mi Barrio", "Longitude": -87.687027, "Latitude": 41.813961, "Address": "4359 S Campbell Ave", "Address_Li": null, "City": "Chicago", "State": "IL", "Zip5": 60632, "Zip4": 1209, "County": "COOK", "Type": "Supermarket" }, "geometry": { "type": "Point", "coordinates": [ -87.687027, 41.813961 ] } },
{ "type": "Feature", "properties": { "OBJECTID": 1876, "FID_": 1050, "Store_Name": "Supermercado Mi Lupita", "Longitude": -87.6931, "Latitude": 41.850082, "Address": "2701 W 23rd St", "Address_Li": null, "City": "Chicago", "State": "IL", "Zip5": 60608, "Zip4": 3601, "County": "COOK", "Type": "Supermarket" }, "geometry": { "type": "Point", "coordinates": [ -87.6931, 41.850082 ] } },
{ "type": "Feature", "properties": { "OBJECTID": 1878, "FID_": 2014, "Store_Name": "SUPERMERCADO RIVERA, INC.", "Longitude": -87.732353, "Latitude": 41.800518, "Address": "4334 W 51st St", "Address_Li": null, "City": "Chicago", "State": "IL", "Zip5": 60632, "Zip4": 4551, "County": "COOK", "Type": "Supermarket" }, "geometry": { "type": "Point", "coordinates": [ -87.732353, 41.800518 ] } },
{ "type": "Feature", "properties": { "OBJECTID": 1881, "FID_": 745, "Store_Name": "SUPERMERCADO ROMAN I", "Longitude": -87.673958, "Latitude": 42.008823, "Address": "6978 N Clark St", "Address_Li": null, "City": "Chicago", "State": "IL", "Zip5": 60626, "Zip4": 3221, "County": "COOK", "Type": "Supermarket" }, "geometry": { "type": "Point", "coordinates": [ -87.673958, 42.008823 ] } },
{ "type": "Feature", "properties": { "OBJECTID": 1882, "FID_": 1932, "Store_Name": "SUPERMERCADO SANCHEZ", "Longitude": -87.69458, "Latitude": 41.7864, "Address": "2824 W 59th St", "Address_Li": null, "City": "Chicago", "State": "IL", "Zip5": 60629, "Zip4": 2201, "County": "COOK", "Type": "Supermarket" }, "geometry": { "type": "Point", "coordinates": [ -87.69458, 41.7864 ] } },
{ "type": "Feature", "properties": { "OBJECTID": 1883, "FID_": 1929, "Store_Name": "SUPERMERCADO SANTOS, INC.", "Longitude": -87.726082, "Latitude": 41.836834, "Address": "4045 W 31st St", "Address_Li": null, "City": "Chicago", "State": "IL", "Zip5": 60623, "Zip4": 4904, "County": "COOK", "Type": "Supermarket" }, "geometry": { "type": "Point", "coordinates": [ -87.726082, 41.836834 ] } },
{ "type": "Feature", "properties": { "OBJECTID": 1884, "FID_": 1286, "Store_Name": "Supermercados Villavicencio Co.", "Longitude": -87.718742, "Latitude": 41.931873, "Address": "3647 W Diversey Ave", "Address_Li": null, "City": "Chicago", "State": "IL", "Zip5": 60647, "Zip4": 1161, "County": "COOK", "Type": "Supermarket" }, "geometry": { "type": "Point", "coordinates": [ -87.718742, 41.931873 ] } },
{ "type": "Feature", "properties": { "OBJECTID": 1907, "FID_": 445, "Store_Name": "TAI NAM CORPORATION", "Longitude": -87.659714, "Latitude": 41.972282, "Address": "4925 N Broadway St", "Address_Li": null, "City": "Chicago", "State": "IL", "Zip5": 60640, "Zip4": 3017, "County": "COOK", "Type": "Grocery Store" }, "geometry": { "type": "Point", "coordinates": [ -87.659714, 41.972282 ] } },
{ "type": "Feature", "properties": { "OBJECTID": 1910, "FID_": 1941, "Store_Name": "TAI WAH GROCERY", "Longitude": -87.632057, "Latitude": 41.852146, "Address": "2226 S Wentworth Ave", "Address_Li": null, "City": "Chicago", "State": "IL", "Zip5": 60616, "Zip4": 2016, "County": "COOK", "Type": "Grocery Store" }, "geometry": { "type": "Point", "coordinates": [ -87.632057, 41.852146 ] } },
{ "type": "Feature", "properties": { "OBJECTID": 1913, "FID_": 1034, "Store_Name": "Tamazula Grocery", "Longitude": -87.689606, "Latitude": 41.914848, "Address": "2458 W Moffat St", "Address_Li": null, "City": "Chicago", "State": "IL", "Zip5": 60647, "Zip4": 4311, "County": "COOK", "Type": "Grocery Store" }, "geometry": { "type": "Point", "coordinates": [ -87.689606, 41.914848 ] } },
{ "type": "Feature", "properties": { "OBJECTID": 1914, "FID_": 388, "Store_Name": "Target 1437", "Longitude": -87.701881, "Latitude": 41.946602, "Address": "2939 Addison", "Address_Li": null, "City": "Chicago", "State": "IL", "Zip5": 60618, "Zip4": 4635, "County": "COOK", "Type": "Hypermarket" }, "geometry": { "type": "Point", "coordinates": [ -87.701881, 41.946602 ] } },
{ "type": "Feature", "properties": { "OBJECTID": 1920, "FID_": 549, "Store_Name": "Target 2373", "Longitude": -87.65583, "Latitude": 41.962917, "Address": "4466 N Broadway St", "Address_Li": null, "City": "Chicago", "State": "IL", "Zip5": 60640, "Zip4": 5660, "County": "COOK", "Type": "Hypermarket" }, "geometry": { "type": "Point", "coordinates": [ -87.65583, 41.962917 ] } },
{ "type": "Feature", "properties": { "OBJECTID": 1921, "FID_": 875, "Store_Name": "Target 2781", "Longitude": -87.65493, "Latitude": 41.877811, "Address": "1101 W Jackson Blvd", "Address_Li": null, "City": "Chicago", "State": "IL", "Zip5": 60607, "Zip4": 2905, "County": "COOK", "Type": "Hypermarket" }, "geometry": { "type": "Point", "coordinates": [ -87.65493, 41.877811 ] } },
{ "type": "Feature", "properties": { "OBJECTID": 1923, "FID_": 852, "Store_Name": "Target 2799", "Longitude": -87.627754, "Latitude": 41.881901, "Address": "1 S State St", "Address_Li": null, "City": "Chicago", "State": "IL", "Zip5": 60603, "Zip4": 2800, "County": "COOK", "Type": "Hypermarket" }, "geometry": { "type": "Point", "coordinates": [ -87.627754, 41.881901 ] } },
{ "type": "Feature", "properties": { "OBJECTID": 1924, "FID_": 1426, "Store_Name": "Target 3207", "Longitude": -87.617188, "Latitude": 41.891045, "Address": "401 E Illinois St", "Address_Li": null, "City": "Chicago", "State": "IL", "Zip5": 60611, "Zip4": 0, "County": "COOK", "Type": "Hypermarket" }, "geometry": { "type": "Point", "coordinates": [ -87.617188, 41.891045 ] } },
{ "type": "Feature", "properties": { "OBJECTID": 1926, "FID_": 1669, "Store_Name": "Target 3219", "Longitude": -87.593811, "Latitude": 41.7995, "Address": "1330 E 53rd St", "Address_Li": null, "City": "Chicago", "State": "IL", "Zip5": 60615, "Zip4": 4002, "County": "COOK", "Type": "Hypermarket" }, "geometry": { "type": "Point", "coordinates": [ -87.593811, 41.7995 ] } },
{ "type": "Feature", "properties": { "OBJECTID": 1927, "FID_": 1609, "Store_Name": "Target 3221", "Longitude": -87.644302, "Latitude": 41.931282, "Address": "2650 N Clark St", "Address_Li": null, "City": "Chicago", "State": "IL", "Zip5": 60614, "Zip4": 1523, "County": "COOK", "Type": "Hypermarket" }, "geometry": { "type": "Point", "coordinates": [ -87.644302, 41.931282 ] } },
{ "type": "Feature", "properties": { "OBJECTID": 1929, "FID_": 150, "Store_Name": "Target Store 1488", "Longitude": -87.604973, "Latitude": 41.739178, "Address": "8560 S Cottage Grove Ave", "Address_Li": null, "City": "Chicago", "State": "IL", "Zip5": 60619, "Zip4": 6116, "County": "COOK", "Type": "Hypermarket" }, "geometry": { "type": "Point", "coordinates": [ -87.604973, 41.739178 ] } },
{ "type": "Feature", "properties": { "OBJECTID": 1931, "FID_": 82, "Store_Name": "Target Store 1879", "Longitude": -87.723724, "Latitude": 41.812752, "Address": "4433 S Pulaski Rd", "Address_Li": null, "City": "Chicago", "State": "IL", "Zip5": 60632, "Zip4": 4010, "County": "COOK", "Type": "Hypermarket" }, "geometry": { "type": "Point", "coordinates": [ -87.723724, 41.812752 ] } },
{ "type": "Feature", "properties": { "OBJECTID": 1932, "FID_": 56, "Store_Name": "Target Store 1889", "Longitude": -87.630585, "Latitude": 41.869282, "Address": "1154 S Clark St", "Address_Li": null, "City": "Chicago", "State": "IL", "Zip5": 60605, "Zip4": 2159, "County": "COOK", "Type": "Hypermarket" }, "geometry": { "type": "Point", "coordinates": [ -87.630585, 41.869282 ] } },
{ "type": "Feature", "properties": { "OBJECTID": 1933, "FID_": 57, "Store_Name": "Target Store 1924", "Longitude": -87.788651, "Latitude": 41.930904, "Address": "6525 W Diversey Ave", "Address_Li": null, "City": "Chicago", "State": "IL", "Zip5": 60707, "Zip4": 2312, "County": "COOK", "Type": "Hypermarket" }, "geometry": { "type": "Point", "coordinates": [ -87.788651, 41.930904 ] } },
{ "type": "Feature", "properties": { "OBJECTID": 1934, "FID_": 75, "Store_Name": "Target Store 2078", "Longitude": -87.673996, "Latitude": 41.834122, "Address": "1940 W 33rd St", "Address_Li": null, "City": "Chicago", "State": "IL", "Zip5": 60608, "Zip4": 6107, "County": "COOK", "Type": "Hypermarket" }, "geometry": { "type": "Point", "coordinates": [ -87.673996, 41.834122 ] } },
{ "type": "Feature", "properties": { "OBJECTID": 1935, "FID_": 121, "Store_Name": "Target Store 2079", "Longitude": -87.682671, "Latitude": 41.990681, "Address": "2112 W Peterson Ave", "Address_Li": null, "City": "Chicago", "State": "IL", "Zip5": 60659, "Zip4": 4277, "County": "COOK", "Type": "Hypermarket" }, "geometry": { "type": "Point", "coordinates": [ -87.682671, 41.990681 ] } },
{ "type": "Feature", "properties": { "OBJECTID": 1936, "FID_": 320, "Store_Name": "Target Store 2344", "Longitude": -87.662552, "Latitude": 41.678619, "Address": "11840 S Marshfield Ave", "Address_Li": null, "City": "Chicago", "State": "IL", "Zip5": 60643, "Zip4": 4902, "County": "COOK", "Type": "Hypermarket" }, "geometry": { "type": "Point", "coordinates": [ -87.662552, 41.678619 ] } },
{ "type": "Feature", "properties": { "OBJECTID": 1937, "FID_": 91, "Store_Name": "Target Store 942", "Longitude": -87.685303, "Latitude": 41.930416, "Address": "2656 N Elston Ave", "Address_Li": null, "City": "Chicago", "State": "IL", "Zip5": 60647, "Zip4": 2019, "County": "COOK", "Type": "Hypermarket" }, "geometry": { "type": "Point", "coordinates": [ -87.685303, 41.930416 ] } },
{ "type": "Feature", "properties": { "OBJECTID": 1938, "FID_": 1007, "Store_Name": "Target T-2613", "Longitude": -87.643272, "Latitude": 41.903717, "Address": "1200 N Larrabee St", "Address_Li": null, "City": "Chicago", "State": "IL", "Zip5": 60610, "Zip4": 0, "County": "COOK", "Type": "Hypermarket" }, "geometry": { "type": "Point", "coordinates": [ -87.643272, 41.903717 ] } },
{ "type": "Feature", "properties": { "OBJECTID": 1940, "FID_": 886, "Store_Name": "Ted's Fresh Market", "Longitude": -87.701469, "Latitude": 41.997566, "Address": "2840 W Devon Ave", "Address_Li": null, "City": "Chicago", "State": "IL", "Zip5": 60659, "Zip4": 1513, "County": "COOK", "Type": "Grocery Store" }, "geometry": { "type": "Point", "coordinates": [ -87.701469, 41.997566 ] } },
{ "type": "Feature", "properties": { "OBJECTID": 1950, "FID_": 1785, "Store_Name": "THE PRODUCE CENTER", "Longitude": -87.778633, "Latitude": 41.98753, "Address": "5820 N Milwaukee Ave", "Address_Li": null, "City": "Chicago", "State": "IL", "Zip5": 60646, "Zip4": 5414, "County": "COOK", "Type": "Grocery Store" }, "geometry": { "type": "Point", "coordinates": [ -87.778633, 41.98753 ] } },
{ "type": "Feature", "properties": { "OBJECTID": 1951, "FID_": 509, "Store_Name": "The Unit", "Longitude": -87.563011, "Latitude": 41.759003, "Address": "2523 E 75th St", "Address_Li": null, "City": "Chicago", "State": "IL", "Zip5": 60649, "Zip4": 3703, "County": "COOK", "Type": "Grocery Store" }, "geometry": { "type": "Point", "coordinates": [ -87.563011, 41.759003 ] } },
{ "type": "Feature", "properties": { "OBJECTID": 1952, "FID_": 248, "Store_Name": "The Warehouse Corp", "Longitude": -87.6362, "Latitude": 41.67791, "Address": "538 W 119th St", "Address_Li": null, "City": "Chicago", "State": "IL", "Zip5": 60628, "Zip4": 0, "County": "COOK", "Type": "Grocery Store" }, "geometry": { "type": "Point", "coordinates": [ -87.6362, 41.67791 ] } },
{ "type": "Feature", "properties": { "OBJECTID": 1967, "FID_": 1643, "Store_Name": "Tony's Finer Foods 1667", "Longitude": -87.767952, "Latitude": 41.93858, "Address": "5630 W Belmont Ave", "Address_Li": null, "City": "Chicago", "State": "IL", "Zip5": 60634, "Zip4": 5301, "County": "COOK", "Type": "Grocery Store" }, "geometry": { "type": "Point", "coordinates": [ -87.767952, 41.93858 ] } },
{ "type": "Feature", "properties": { "OBJECTID": 1970, "FID_": 1777, "Store_Name": "Tony's Fresh Market 1", "Longitude": -87.717224, "Latitude": 41.924564, "Address": "3607 W Fullerton Ave", "Address_Li": null, "City": "Chicago", "State": "IL", "Zip5": 60647, "Zip4": 2389, "County": "COOK", "Type": "Supermarket" }, "geometry": { "type": "Point", "coordinates": [ -87.717224, 41.924564 ] } },
{ "type": "Feature", "properties": { "OBJECTID": 1971, "FID_": 1071, "Store_Name": "Tony's Fresh Market 11", "Longitude": -87.692406, "Latitude": 41.976883, "Address": "5233 N Lincoln Ave", "Address_Li": null, "City": "Chicago", "State": "IL", "Zip5": 60625, "Zip4": 2405, "County": "COOK", "Type": "Supermarket" }, "geometry": { "type": "Point", "coordinates": [ -87.692406, 41.976883 ] } },
{ "type": "Feature", "properties": { "OBJECTID": 1973, "FID_": 1759, "Store_Name": "Tony's Fresh Market 2", "Longitude": -87.766129, "Latitude": 41.926708, "Address": "2500 N Central Ave", "Address_Li": null, "City": "Chicago", "State": "IL", "Zip5": 60639, "Zip4": 1322, "County": "COOK", "Type": "Supermarket" }, "geometry": { "type": "Point", "coordinates": [ -87.766129, 41.926708 ] } },
{ "type": "Feature", "properties": { "OBJECTID": 1974, "FID_": 1825, "Store_Name": "Tony's Fresh Market 3", "Longitude": -87.742691, "Latitude": 41.938908, "Address": "4608 W Belmont Ave", "Address_Li": null, "City": "Chicago", "State": "IL", "Zip5": 60641, "Zip4": 4401, "County": "COOK", "Type": "Supermarket" }, "geometry": { "type": "Point", "coordinates": [ -87.742691, 41.938908 ] } },
{ "type": "Feature", "properties": { "OBJECTID": 1975, "FID_": 1945, "Store_Name": "Tony's Fresh Market 4", "Longitude": -87.72245, "Latitude": 41.956028, "Address": "4137 N Elston Ave", "Address_Li": null, "City": "Chicago", "State": "IL", "Zip5": 60618, "Zip4": 2107, "County": "COOK", "Type": "Supermarket" }, "geometry": { "type": "Point", "coordinates": [ -87.72245, 41.956028 ] } },
{ "type": "Feature", "properties": { "OBJECTID": 1978, "FID_": 1408, "Store_Name": "Tony's Stop & Save,inc.", "Longitude": -87.606651, "Latitude": 41.815212, "Address": "4351 S Cottage Grove Ave", "Address_Li": null, "City": "Chicago", "State": "IL", "Zip5": 60653, "Zip4": 3513, "County": "COOK", "Type": "Grocery Store" }, "geometry": { "type": "Point", "coordinates": [ -87.606651, 41.815212 ] } },
{ "type": "Feature", "properties": { "OBJECTID": 1986, "FID_": 2012, "Store_Name": "TRADER JOE'S  688", "Longitude": -87.675697, "Latitude": 41.94981, "Address": "3745 N Lincoln Ave", "Address_Li": null, "City": "Chicago", "State": "IL", "Zip5": 60613, "Zip4": 3517, "County": "COOK", "Type": "Grocery Store" }, "geometry": { "type": "Point", "coordinates": [ -87.675697, 41.94981 ] } },
{ "type": "Feature", "properties": { "OBJECTID": 1987, "FID_": 2037, "Store_Name": "TRADER JOE'S 691", "Longitude": -87.654495, "Latitude": 41.914436, "Address": "1840 N Clybourn Ave # 200", "Address_Li": null, "City": "Chicago", "State": "IL", "Zip5": 60614, "Zip4": 7923, "County": "COOK", "Type": "Grocery Store" }, "geometry": { "type": "Point", "coordinates": [ -87.654495, 41.914436 ] } },
{ "type": "Feature", "properties": { "OBJECTID": 1988, "FID_": 125, "Store_Name": "Trader Joe's 696", "Longitude": -87.626564, "Latitude": 41.893356, "Address": "44 E Ontario St", "Address_Li": null, "City": "Chicago", "State": "IL", "Zip5": 60611, "Zip4": 4755, "County": "COOK", "Type": "Grocery Store" }, "geometry": { "type": "Point", "coordinates": [ -87.626564, 41.893356 ] } },
{ "type": "Feature", "properties": { "OBJECTID": 1991, "FID_": 717, "Store_Name": "Trader Joes 701", "Longitude": -87.625793, "Latitude": 41.868031, "Address": "1147 South Wabash", "Address_Li": "Ste 100", "City": "Chicago", "State": "IL", "Zip5": 60605, "Zip4": 0, "County": "COOK", "Type": "Grocery Store" }, "geometry": { "type": "Point", "coordinates": [ -87.625793, 41.868031 ] } },
{ "type": "Feature", "properties": { "OBJECTID": 1992, "FID_": 680, "Store_Name": "Trader Joes 703", "Longitude": -87.64621, "Latitude": 41.932724, "Address": "667 W Diversey Pkwy", "Address_Li": null, "City": "Chicago", "State": "IL", "Zip5": 60614, "Zip4": 1510, "County": "COOK", "Type": "Grocery Store" }, "geometry": { "type": "Point", "coordinates": [ -87.64621, 41.932724 ] } },
{ "type": "Feature", "properties": { "OBJECTID": 1993, "FID_": 260, "Store_Name": "Treasure Island", "Longitude": -87.662376, "Latitude": 41.920246, "Address": "2121 N Clybourn Ave", "Address_Li": null, "City": "Chicago", "State": "IL", "Zip5": 60614, "Zip4": 4031, "County": "COOK", "Type": "Grocery Store" }, "geometry": { "type": "Point", "coordinates": [ -87.662376, 41.920246 ] } },
{ "type": "Feature", "properties": { "OBJECTID": 1995, "FID_": 265, "Store_Name": "Treasure Island Foods", "Longitude": -87.588081, "Latitude": 41.795258, "Address": "1526 E 55th St", "Address_Li": null, "City": "Chicago", "State": "IL", "Zip5": 60615, "Zip4": 5527, "County": "COOK", "Type": "Grocery Store" }, "geometry": { "type": "Point", "coordinates": [ -87.588081, 41.795258 ] } },
{ "type": "Feature", "properties": { "OBJECTID": 1998, "FID_": 1637, "Store_Name": "Treasure Island Foods 10", "Longitude": -87.645737, "Latitude": 41.944897, "Address": "3460 North Broadway St.", "Address_Li": null, "City": "Chicago", "State": "IL", "Zip5": 60657, "Zip4": 0, "County": "COOK", "Type": "Grocery Store" }, "geometry": { "type": "Point", "coordinates": [ -87.645737, 41.944897 ] } },
{ "type": "Feature", "properties": { "OBJECTID": 1999, "FID_": 1639, "Store_Name": "Treasure Island Foods 64", "Longitude": -87.630852, "Latitude": 41.903118, "Address": "75 W Elm St", "Address_Li": null, "City": "Chicago", "State": "IL", "Zip5": 60610, "Zip4": 2789, "County": "COOK", "Type": "Grocery Store" }, "geometry": { "type": "Point", "coordinates": [ -87.630852, 41.903118 ] } },
{ "type": "Feature", "properties": { "OBJECTID": 2002, "FID_": 1638, "Store_Name": "Treasure Island Foods 91", "Longitude": -87.615837, "Latitude": 41.894962, "Address": "680 N. Lake Shore Drive", "Address_Li": null, "City": "Chicago", "State": "IL", "Zip5": 60611, "Zip4": 0, "County": "COOK", "Type": "Grocery Store" }, "geometry": { "type": "Point", "coordinates": [ -87.615837, 41.894962 ] } },
{ "type": "Feature", "properties": { "OBJECTID": 2003, "FID_": 1640, "Store_Name": "Treasure Island Foods, Inc. 27", "Longitude": -87.634705, "Latitude": 41.912186, "Address": "1639 N Wells St", "Address_Li": null, "City": "Chicago", "State": "IL", "Zip5": 60614, "Zip4": 6001, "County": "COOK", "Type": "Grocery Store" }, "geometry": { "type": "Point", "coordinates": [ -87.634705, 41.912186 ] } },
{ "type": "Feature", "properties": { "OBJECTID": 2004, "FID_": 218, "Store_Name": "Ultra Foods 8796", "Longitude": -87.703369, "Latitude": 41.735218, "Address": "3250 W 87th St", "Address_Li": null, "City": "Chicago", "State": "IL", "Zip5": 60652, "Zip4": 3768, "County": "COOK", "Type": "Supermarket" }, "geometry": { "type": "Point", "coordinates": [ -87.703369, 41.735218 ] } },
{ "type": "Feature", "properties": { "OBJECTID": 2011, "FID_": 1811, "Store_Name": "UNI-MART ONE STOP SHOPPING, INC.", "Longitude": -87.669624, "Latitude": 41.988125, "Address": "5845 N Clark St", "Address_Li": null, "City": "Chicago", "State": "IL", "Zip5": 60660, "Zip4": 3215, "County": "COOK", "Type": "Grocery Store" }, "geometry": { "type": "Point", "coordinates": [ -87.669624, 41.988125 ] } },
{ "type": "Feature", "properties": { "OBJECTID": 2012, "FID_": 1695, "Store_Name": "United Supermarket", "Longitude": -87.622414, "Latitude": 41.793781, "Address": "5539 S Michigan Ave", "Address_Li": null, "City": "Chicago", "State": "IL", "Zip5": 60637, "Zip4": 1012, "County": "COOK", "Type": "Supermarket" }, "geometry": { "type": "Point", "coordinates": [ -87.622414, 41.793781 ] } },
{ "type": "Feature", "properties": { "OBJECTID": 2013, "FID_": 996, "Store_Name": "Universal Fruit Market", "Longitude": -87.673721, "Latitude": 41.801258, "Address": "1940 W 51st St", "Address_Li": null, "City": "Chicago", "State": "IL", "Zip5": 60609, "Zip4": 4845, "County": "COOK", "Type": "Grocery Store" }, "geometry": { "type": "Point", "coordinates": [ -87.673721, 41.801258 ] } },
{ "type": "Feature", "properties": { "OBJECTID": 2014, "FID_": 581, "Store_Name": "Up Town Shop & Save Inc", "Longitude": -87.654686, "Latitude": 41.965549, "Address": "4605 N Sheridan Rd", "Address_Li": null, "City": "Chicago", "State": "IL", "Zip5": 60640, "Zip4": 5019, "County": "COOK", "Type": "Grocery Store" }, "geometry": { "type": "Point", "coordinates": [ -87.654686, 41.965549 ] } },
{ "type": "Feature", "properties": { "OBJECTID": 2019, "FID_": 627, "Store_Name": "Valley Of Jordan", "Longitude": -87.60112, "Latitude": 41.799355, "Address": "1009 E 53rd St", "Address_Li": null, "City": "Chicago", "State": "IL", "Zip5": 60615, "Zip4": 4311, "County": "COOK", "Type": "Grocery Store" }, "geometry": { "type": "Point", "coordinates": [ -87.60112, 41.799355 ] } },
{ "type": "Feature", "properties": { "OBJECTID": 2031, "FID_": 654, "Store_Name": "VIETHOA PLAZA", "Longitude": -87.656624, "Latitude": 41.973217, "Address": "1051 W Argyle St", "Address_Li": null, "City": "Chicago", "State": "IL", "Zip5": 60640, "Zip4": 3707, "County": "COOK", "Type": "Grocery Store" }, "geometry": { "type": "Point", "coordinates": [ -87.656624, 41.973217 ] } },
{ "type": "Feature", "properties": { "OBJECTID": 2054, "FID_": 126, "Store_Name": "Walmart 5402", "Longitude": -87.74276, "Latitude": 41.909733, "Address": "4650 W North Ave", "Address_Li": null, "City": "Chicago", "State": "IL", "Zip5": 60639, "Zip4": 4611, "County": "COOK", "Type": "Hypermarket" }, "geometry": { "type": "Point", "coordinates": [ -87.74276, 41.909733 ] } },
{ "type": "Feature", "properties": { "OBJECTID": 2055, "FID_": 994, "Store_Name": "Walmart 5965", "Longitude": -87.598633, "Latitude": 41.693535, "Address": "10900 S DOTY AVE", "Address_Li": null, "City": "Chicago", "State": "IL", "Zip5": 60628, "Zip4": 0, "County": "COOK", "Type": "Hypermarket" }, "geometry": { "type": "Point", "coordinates": [ -87.598633, 41.693535 ] } },
{ "type": "Feature", "properties": { "OBJECTID": 2057, "FID_": 900, "Store_Name": "Walmart Neighborhood Market 2430", "Longitude": -87.661041, "Latitude": 41.808701, "Address": "1424 W 47th St", "Address_Li": null, "City": "Chicago", "State": "IL", "Zip5": 60609, "Zip4": 3232, "County": "COOK", "Type": "Hypermarket" }, "geometry": { "type": "Point", "coordinates": [ -87.661041, 41.808701 ] } },
{ "type": "Feature", "properties": { "OBJECTID": 2058, "FID_": 1270, "Store_Name": "Walmart Neighborhood Market 3110", "Longitude": -87.663551, "Latitude": 41.757259, "Address": "7535 S Ashland Ave", "Address_Li": null, "City": "Chicago", "State": "IL", "Zip5": 60620, "Zip4": 4246, "County": "COOK", "Type": "Hypermarket" }, "geometry": { "type": "Point", "coordinates": [ -87.663551, 41.757259 ] } },
{ "type": "Feature", "properties": { "OBJECTID": 2059, "FID_": 1172, "Store_Name": "Walmart NEIGHBORHOOD MARKET 3166", "Longitude": -87.606598, "Latitude": 41.808689, "Address": "4720 S Cottage Grove Ave", "Address_Li": null, "City": "Chicago", "State": "IL", "Zip5": 60615, "Zip4": 1612, "County": "COOK", "Type": "Hypermarket" }, "geometry": { "type": "Point", "coordinates": [ -87.606598, 41.808689 ] } },
{ "type": "Feature", "properties": { "OBJECTID": 2060, "FID_": 910, "Store_Name": "Walmart Neighborhood Market 5645", "Longitude": -87.644424, "Latitude": 41.934147, "Address": "2844 N Broadway St", "Address_Li": null, "City": "Chicago", "State": "IL", "Zip5": 60657, "Zip4": 6017, "County": "COOK", "Type": "Hypermarket" }, "geometry": { "type": "Point", "coordinates": [ -87.644424, 41.934147 ] } },
{ "type": "Feature", "properties": { "OBJECTID": 2061, "FID_": 912, "Store_Name": "Walmart Neighborhood Market 5646", "Longitude": -87.689949, "Latitude": 41.851955, "Address": "2551 W Cermak Rd", "Address_Li": null, "City": "Chicago", "State": "IL", "Zip5": 60608, "Zip4": 3719, "County": "COOK", "Type": "Hypermarket" }, "geometry": { "type": "Point", "coordinates": [ -87.689949, 41.851955 ] } },
{ "type": "Feature", "properties": { "OBJECTID": 2063, "FID_": 738, "Store_Name": "Walmart Neighborhood Market 5647", "Longitude": -87.641747, "Latitude": 41.880623, "Address": "570 W Monroe St", "Address_Li": null, "City": "Chicago", "State": "IL", "Zip5": 60661, "Zip4": 3618, "County": "COOK", "Type": "Hypermarket" }, "geometry": { "type": "Point", "coordinates": [ -87.641747, 41.880623 ] } },
{ "type": "Feature", "properties": { "OBJECTID": 2064, "FID_": 966, "Store_Name": "Walmart SuperCenter 5617", "Longitude": -87.743019, "Latitude": 41.931618, "Address": "4600 Diversey Ave", "Address_Li": null, "City": "Chicago", "State": "IL", "Zip5": 60639, "Zip4": 1829, "County": "COOK", "Type": "Hypermarket" }, "geometry": { "type": "Point", "coordinates": [ -87.743019, 41.931618 ] } },
{ "type": "Feature", "properties": { "OBJECTID": 2066, "FID_": 771, "Store_Name": "Walmart Supercenter 5781", "Longitude": -87.63401, "Latitude": 41.742516, "Address": "8331 S Stewart Ave", "Address_Li": null, "City": "Chicago", "State": "IL", "Zip5": 60620, "Zip4": 1728, "County": "COOK", "Type": "Hypermarket" }, "geometry": { "type": "Point", "coordinates": [ -87.63401, 41.742516 ] } },
{ "type": "Feature", "properties": { "OBJECTID": 2099, "FID_": 158, "Store_Name": "Whole Foods Market", "Longitude": -87.74839, "Latitude": 41.990185, "Address": "6020 N Cicero Ave", "Address_Li": null, "City": "Chicago", "State": "IL", "Zip5": 60646, "Zip4": 4302, "County": "COOK", "Type": "Supermarket" }, "geometry": { "type": "Point", "coordinates": [ -87.74839, 41.990185 ] } },
{ "type": "Feature", "properties": { "OBJECTID": 2100, "FID_": 231, "Store_Name": "Whole Foods Market", "Longitude": -87.649529, "Latitude": 41.948441, "Address": "3640 N Halsted St", "Address_Li": null, "City": "Chicago", "State": "IL", "Zip5": 60613, "Zip4": 4316, "County": "COOK", "Type": "Supermarket" }, "geometry": { "type": "Point", "coordinates": [ -87.649529, 41.948441 ] } },
{ "type": "Feature", "properties": { "OBJECTID": 2102, "FID_": 235, "Store_Name": "Whole Foods Market", "Longitude": -87.639336, "Latitude": 41.868481, "Address": "1100 S Canal St", "Address_Li": "Ste 107", "City": "Chicago", "State": "IL", "Zip5": 60607, "Zip4": 0, "County": "COOK", "Type": "Supermarket" }, "geometry": { "type": "Point", "coordinates": [ -87.639336, 41.868481 ] } },
{ "type": "Feature", "properties": { "OBJECTID": 2104, "FID_": 1788, "Store_Name": "Whole Foods Market", "Longitude": -87.66877, "Latitude": 41.941887, "Address": "3300 N Ashland Ave", "Address_Li": null, "City": "Chicago", "State": "IL", "Zip5": 60657, "Zip4": 2109, "County": "COOK", "Type": "Supermarket" }, "geometry": { "type": "Point", "coordinates": [ -87.66877, 41.941887 ] } },
{ "type": "Feature", "properties": { "OBJECTID": 2106, "FID_": 2106, "Store_Name": "CERMAK KEDZIE MARATHON", "Longitude": -87.705589, "Latitude": 41.851788, "Address": "3202 W Cermak Rd", "Address_Li": null, "City": "Chicago", "State": "IL", "Zip5": 60623, "Zip4": 3309, "County": "COOK", "Type": "Grocery Store" }, "geometry": { "type": "Point", "coordinates": [ -87.705589, 41.851788 ] } },
{ "type": "Feature", "properties": { "OBJECTID": 2107, "FID_": 1884, "Store_Name": "Whole Foods Market", "Longitude": -87.626541, "Latitude": 41.894928, "Address": "30 W Huron St", "Address_Li": null, "City": "Chicago", "State": "IL", "Zip5": 60610, "Zip4": 6402, "County": "COOK", "Type": "Supermarket" }, "geometry": { "type": "Point", "coordinates": [ -87.626541, 41.894928 ] } },
{ "type": "Feature", "properties": { "OBJECTID": 2109, "FID_": 376, "Store_Name": "WHOLE FOODS MARKET 10252", "Longitude": -87.652962, "Latitude": 41.909481, "Address": "1550 N Kingsbury St", "Address_Li": null, "City": "Chicago", "State": "IL", "Zip5": 60642, "Zip4": 2532, "County": "COOK", "Type": "Supermarket" }, "geometry": { "type": "Point", "coordinates": [ -87.652962, 41.909481 ] } },
{ "type": "Feature", "properties": { "OBJECTID": 2110, "FID_": 1600, "Store_Name": "Whole Foods Market 10458", "Longitude": -87.587738, "Latitude": 41.801929, "Address": "5118 S Lake Park Ave", "Address_Li": null, "City": "Chicago", "State": "IL", "Zip5": 60615, "Zip4": 4115, "County": "COOK", "Type": "Supermarket" }, "geometry": { "type": "Point", "coordinates": [ -87.587738, 41.801929 ] } },
{ "type": "Feature", "properties": { "OBJECTID": 2116, "FID_": 1660, "Store_Name": "Whole Foods Market 10557", "Longitude": -87.645622, "Latitude": 41.782173, "Address": "832 W 63rd Pkwy", "Address_Li": null, "City": "Chicago", "State": "IL", "Zip5": 60621, "Zip4": 2050, "County": "COOK", "Type": "Supermarket" }, "geometry": { "type": "Point", "coordinates": [ -87.645622, 41.782173 ] } },
{ "type": "Feature", "properties": { "OBJECTID": 2117, "FID_": 1278, "Store_Name": "Whole Foods Market 10567", "Longitude": -87.653229, "Latitude": 41.925369, "Address": "959 W Fullerton Ave", "Address_Li": null, "City": "Chicago", "State": "IL", "Zip5": 60614, "Zip4": 2406, "County": "COOK", "Type": "Supermarket" }, "geometry": { "type": "Point", "coordinates": [ -87.653229, 41.925369 ] } },
{ "type": "Feature", "properties": { "OBJECTID": 2118, "FID_": 1320, "Store_Name": "Whole Foods Market 10568", "Longitude": -87.660278, "Latitude": 41.990883, "Address": "6009 N Broadway St", "Address_Li": null, "City": "Chicago", "State": "IL", "Zip5": 60660, "Zip4": 2500, "County": "COOK", "Type": "Supermarket" }, "geometry": { "type": "Point", "coordinates": [ -87.660278, 41.990883 ] } },
{ "type": "Feature", "properties": { "OBJECTID": 2119, "FID_": 1257, "Store_Name": "Whole Foods Market 10571", "Longitude": -87.621338, "Latitude": 41.891758, "Address": "255 E GRAND AVE", "Address_Li": null, "City": "Chicago", "State": "IL", "Zip5": 60611, "Zip4": 0, "County": "COOK", "Type": "Supermarket" }, "geometry": { "type": "Point", "coordinates": [ -87.621338, 41.891758 ] } },
{ "type": "Feature", "properties": { "OBJECTID": 2120, "FID_": 1293, "Store_Name": "Whole Foods Market 10572", "Longitude": -87.647324, "Latitude": 41.881874, "Address": "1 N Halsted St", "Address_Li": null, "City": "Chicago", "State": "IL", "Zip5": 60661, "Zip4": 2176, "County": "COOK", "Type": "Supermarket" }, "geometry": { "type": "Point", "coordinates": [ -87.647324, 41.881874 ] } },
{ "type": "Feature", "properties": { "OBJECTID": 2121, "FID_": 1733, "Store_Name": "Whole Foods Market 10643", "Longitude": -87.668655, "Latitude": 41.940441, "Address": "3201 N Ashland Ave", "Address_Li": null, "City": "Chicago", "State": "IL", "Zip5": 60657, "Zip4": 2156, "County": "COOK", "Type": "Supermarket" }, "geometry": { "type": "Point", "coordinates": [ -87.668655, 41.940441 ] } },
{ "type": "Feature", "properties": { "OBJECTID": 2149, "FID_": 1766, "Store_Name": "WORLD FRESH MARKET", "Longitude": -87.6912, "Latitude": 41.997787, "Address": "2434 W Devon Ave", "Address_Li": null, "City": "Chicago", "State": "IL", "Zip5": 60659, "Zip4": 1913, "County": "COOK", "Type": "Grocery Store" }, "geometry": { "type": "Point", "coordinates": [ -87.6912, 41.997787 ] } },
{ "type": "Feature", "properties": { "OBJECTID": 2177, "FID_": 926, "Store_Name": "Zees Supermarket Plus", "Longitude": -87.586227, "Latitude": 41.76128, "Address": "7336 S Stony Island Ave", "Address_Li": null, "City": "Chicago", "State": "IL", "Zip5": 60649, "Zip4": 3164, "County": "COOK", "Type": "Supermarket" }, "geometry": { "type": "Point", "coordinates": [ -87.586227, 41.76128 ] } }
]
}
