{
"type": "FeatureCollection",
"crs": { "type": "name", "properties": { "name": "urn:ogc:def:crs:OGC:1.3:CRS84" } },
"features": [
{ "type": "Feature", "properties": { "Store_Name": "QFC 858", "Longitude": -122.3119, "Latitude": 47.73391, "Address": "1531 NE 145th St", "Address Li": null, "Type": "Supermarket", "City": "Seattle", "State": "WA" }, "geometry": { "type": "MultiPoint", "coordinates": [ [ -122.3119, 47.733906 ] ] } },
{ "type": "Feature", "properties": { "Store_Name": "Puget Consumer Co-op 9", "Longitude": -122.34443, "Latitude": 47.68339, "Address": "7504 Aurora Ave N", "Address Li": null, "Type": "Supermarket", "City": "Seattle", "State": "WA" }, "geometry": { "type": "MultiPoint", "coordinates": [ [ -122.34443, 47.683395 ] ] } },
{ "type": "Feature", "properties": { "Store_Name": "SAFEWAY 0423", "Longitude": -122.29043, "Latitude": 47.68287, "Address": "7340 35th Ave NE", "Address Li": null, "Type": "Supermarket", "City": "Seattle", "State": "WA" }, "geometry": { "type": "MultiPoint", "coordinates": [ [ -122.29043, 47.682873 ] ] } },
{ "type": "Feature", "properties": { "Store_Name": "SAFEWAY 0488", "Longitude": -122.29345, "Latitude": 47.66126, "Address": "3020 NE 45th St", "Address Li": null, "Type": "Supermarket", "City": "Seattle", "State": "WA" }, "geometry": { "type": "MultiPoint", "coordinates": [ [ -122.29345, 47.661263 ] ] } },
{ "type": "Feature", "properties": { "Store_Name": "QFC 807", "Longitude": -122.29555, "Latitude": 47.66126, "Address": "2746 NE 45th St", "Address Li": null, "Type": "Supermarket", "City": "SEATTLE", "State": "WA" }, "geometry": { "type": "MultiPoint", "coordinates": [ [ -122.29555, 47.661263 ] ] } },
{ "type": "Feature", "properties": { "Store_Name": "Puget Consumers Co-op Fremont 11", "Longitude": -122.35123, "Latitude": 47.64986, "Address": "600 N 34th St", "Address Li": null, "Type": "Supermarket", "City": "Seattle", "State": "WA" }, "geometry": { "type": "MultiPoint", "coordinates": [ [ -122.35123, 47.649864 ] ] } },
{ "type": "Feature", "properties": { "Store_Name": "MARKETIME FOODS", "Longitude": -122.34999, "Latitude": 47.66064, "Address": "4416 Fremont Ave N", "Address Li": null, "Type": "Grocery Store", "City": "Seattle", "State": "WA" }, "geometry": { "type": "MultiPoint", "coordinates": [ [ -122.34999, 47.660641 ] ] } },
{ "type": "Feature", "properties": { "Store_Name": "QFC 887", "Longitude": -122.321, "Latitude": 47.62219, "Address": "417 Broadway E", "Address Li": null, "Type": "Supermarket", "City": "Seattle", "State": "WA" }, "geometry": { "type": "MultiPoint", "coordinates": [ [ -122.321, 47.622185 ] ] } },
{ "type": "Feature", "properties": { "Store_Name": "PROMENADE RED APPLE MARKET", "Longitude": -122.30222, "Latitude": 47.59922, "Address": "2301 S JACKSON ST", "Address Li": null, "Type": "Grocery Store", "City": "SEATTLE", "State": "WA" }, "geometry": { "type": "MultiPoint", "coordinates": [ [ -122.30222, 47.599224 ] ] } },
{ "type": "Feature", "properties": { "Store_Name": "SEMIRA'S GROCERY", "Longitude": -122.29873, "Latitude": 47.60163, "Address": "2601 E Yesler Way", "Address Li": null, "Type": "Grocery Store", "City": "Seattle", "State": "WA" }, "geometry": { "type": "MultiPoint", "coordinates": [ [ -122.29873, 47.601631 ] ] } },
{ "type": "Feature", "properties": { "Store_Name": "FOU LEE MARKET", "Longitude": -122.30589, "Latitude": 47.56004, "Address": "2050 S Columbian Way", "Address Li": null, "Type": "Supermarket", "City": "Seattle", "State": "WA" }, "geometry": { "type": "MultiPoint", "coordinates": [ [ -122.30589, 47.560036 ] ] } },
{ "type": "Feature", "properties": { "Store_Name": "SEATTLE SUPER MARKET", "Longitude": -122.30455, "Latitude": 47.55912, "Address": "4801 Beacon Ave S", "Address Li": null, "Type": "Supermarket", "City": "Seattle", "State": "WA" }, "geometry": { "type": "MultiPoint", "coordinates": [ [ -122.30455, 47.559116 ] ] } },
{ "type": "Feature", "properties": { "Store_Name": "ALBERTSONS 2410", "Longitude": -122.34494, "Latitude": 47.72359, "Address": "13050 Aurora Ave N", "Address Li": null, "Type": "Grocery Store", "City": "Seattle", "State": "WA" }, "geometry": { "type": "MultiPoint", "coordinates": [ [ -122.34494, 47.723587 ] ] } },
{ "type": "Feature", "properties": { "Store_Name": "Aurora Grocery Outlet", "Longitude": -122.34507, "Latitude": 47.72478, "Address": "13201 Aurora Ave N", "Address Li": null, "Type": "Grocery Store", "City": "Seattle", "State": "WA" }, "geometry": { "type": "MultiPoint", "coordinates": [ [ -122.34507, 47.724781 ] ] } },
{ "type": "Feature", "properties": { "Store_Name": "SAFEWAY  3091", "Longitude": -122.31415, "Latitude": 47.66476, "Address": "4732 Brooklyn Ave NE", "Address Li": null, "Type": "Supermarket", "City": "Seattle", "State": "WA" }, "geometry": { "type": "MultiPoint", "coordinates": [ [ -122.31415, 47.664757 ] ] } },
{ "type": "Feature", "properties": { "Store_Name": "TRADER JOES  137", "Longitude": -122.31749, "Latitude": 47.663, "Address": "4555 Roosevelt Way NE", "Address Li": null, "Type": "Grocery Store", "City": "Seattle", "State": "WA" }, "geometry": { "type": "MultiPoint", "coordinates": [ [ -122.31749, 47.662998 ] ] } },
{ "type": "Feature", "properties": { "Store_Name": "Lyons Grocery", "Longitude": -122.34345, "Latitude": 47.63779, "Address": "2100 Dexter Ave N", "Address Li": null, "Type": "Grocery Store", "City": "Seattle", "State": "WA" }, "geometry": { "type": "MultiPoint", "coordinates": [ [ -122.34345, 47.637787 ] ] } },
{ "type": "Feature", "properties": { "Store_Name": "SAFEWAY STORE 1993", "Longitude": -122.3036, "Latitude": 47.61839, "Address": "2201 E Madison St", "Address Li": null, "Type": "Supermarket", "City": "Seattle", "State": "WA" }, "geometry": { "type": "MultiPoint", "coordinates": [ [ -122.3036, 47.618393 ] ] } },
{ "type": "Feature", "properties": { "Store_Name": "QFC 804", "Longitude": -122.31259, "Latitude": 47.62236, "Address": "416 15th Ave E", "Address Li": null, "Type": "Supermarket", "City": "Seattle", "State": "WA" }, "geometry": { "type": "MultiPoint", "coordinates": [ [ -122.31259, 47.62236 ] ] } },
{ "type": "Feature", "properties": { "Store_Name": "Wally's Grocery", "Longitude": -122.34351, "Latitude": 47.6127, "Address": "2129 2nd Ave", "Address Li": null, "Type": "Grocery Store", "City": "Seattle", "State": "WA" }, "geometry": { "type": "MultiPoint", "coordinates": [ [ -122.34351, 47.612698 ] ] } },
{ "type": "Feature", "properties": { "Store_Name": "2nd Ave Grocery", "Longitude": -122.34492, "Latitude": 47.61351, "Address": "2237 2nd Ave", "Address Li": null, "Type": "Grocery Store", "City": "Seattle", "State": "WA" }, "geometry": { "type": "MultiPoint", "coordinates": [ [ -122.34492, 47.613506 ] ] } },
{ "type": "Feature", "properties": { "Store_Name": "DAN'S BELLTOWN GROCERY", "Longitude": -122.34429, "Latitude": 47.61436, "Address": "2221 3rd Ave", "Address Li": null, "Type": "Grocery Store", "City": "Seattle", "State": "WA" }, "geometry": { "type": "MultiPoint", "coordinates": [ [ -122.34429, 47.614365 ] ] } },
{ "type": "Feature", "properties": { "Store_Name": "MADRONA GROCERY OUTLET", "Longitude": -122.29616, "Latitude": 47.61182, "Address": "1126 Martin Luther King Jr Way", "Address Li": null, "Type": "Grocery Store", "City": "Seattle", "State": "WA" }, "geometry": { "type": "MultiPoint", "coordinates": [ [ -122.29616, 47.611816 ] ] } },
{ "type": "Feature", "properties": { "Store_Name": "METROPOLITAN MARKET #153", "Longitude": -122.38504, "Latitude": 47.5826, "Address": "2320 42nd Ave SW", "Address Li": null, "Type": "Supermarket", "City": "Seattle", "State": "WA" }, "geometry": { "type": "MultiPoint", "coordinates": [ [ -122.38504, 47.5826 ] ] } },
{ "type": "Feature", "properties": { "Store_Name": "Vientiane Grocery", "Longitude": -122.2865, "Latitude": 47.54755, "Address": "6059 Martin Luther King Jr Way S", "Address Li": null, "Type": "Grocery Store", "City": "Seattle", "State": "WA" }, "geometry": { "type": "MultiPoint", "coordinates": [ [ -122.2865, 47.547554 ] ] } },
{ "type": "Feature", "properties": { "Store_Name": "Ammana House Ware And Grocery", "Longitude": -122.28883, "Latitude": 47.55248, "Address": "5503 Martin Luther King Jr Way S", "Address Li": null, "Type": "Grocery Store", "City": "Seattle", "State": "WA" }, "geometry": { "type": "MultiPoint", "coordinates": [ [ -122.28883, 47.552483 ] ] } },
{ "type": "Feature", "properties": { "Store_Name": "Island Pacific Supermarket 6040", "Longitude": -122.28587, "Latitude": 47.54693, "Address": "6040 Martin Luther King Jr Way S", "Address Li": null, "Type": "Supermarket", "City": "Seattle", "State": "WA" }, "geometry": { "type": "MultiPoint", "coordinates": [ [ -122.28587, 47.546925 ] ] } },
{ "type": "Feature", "properties": { "Store_Name": "Harameyn Grocery", "Longitude": -122.27727, "Latitude": 47.55014, "Address": "5811 Rainier Ave S", "Address Li": null, "Type": "Grocery Store", "City": "Seattle", "State": "WA" }, "geometry": { "type": "MultiPoint", "coordinates": [ [ -122.27727, 47.55014 ] ] } },
{ "type": "Feature", "properties": { "Store_Name": "Hong Sun Herbs & Wholesale", "Longitude": -122.28629, "Latitude": 47.54781, "Address": "6028 Martin Luther King Jr Way S", "Address Li": null, "Type": "Supermarket", "City": "Seattle", "State": "WA" }, "geometry": { "type": "MultiPoint", "coordinates": [ [ -122.28629, 47.547813 ] ] } },
{ "type": "Feature", "properties": { "Store_Name": "Puget Consumers Co-op 15", "Longitude": -122.28791, "Latitude": 47.55867, "Address": "3610 S Edmunds St", "Address Li": null, "Type": "Supermarket", "City": "Seattle", "State": "WA" }, "geometry": { "type": "MultiPoint", "coordinates": [ [ -122.28791, 47.558674 ] ] } },
{ "type": "Feature", "properties": { "Store_Name": "Graham Street Grocery", "Longitude": -122.29664, "Latitude": 47.54623, "Address": "2801 S Graham St", "Address Li": null, "Type": "Grocery Store", "City": "Seattle", "State": "WA" }, "geometry": { "type": "MultiPoint", "coordinates": [ [ -122.29664, 47.546234 ] ] } },
{ "type": "Feature", "properties": { "Store_Name": "Go-go Grocery Market", "Longitude": -122.29454, "Latitude": 47.53797, "Address": "7140 Beacon Ave S", "Address Li": null, "Type": "Grocery Store", "City": "Seattle", "State": "WA" }, "geometry": { "type": "MultiPoint", "coordinates": [ [ -122.29454, 47.537968 ] ] } },
{ "type": "Feature", "properties": { "Store_Name": "SHARIF GROCERY & HALAL INC", "Longitude": -122.26995, "Latitude": 47.52852, "Address": "8334 Rainier Ave S", "Address Li": "Ste 101", "Type": "Grocery Store", "City": "Seattle", "State": "WA" }, "geometry": { "type": "MultiPoint", "coordinates": [ [ -122.26995, 47.528519 ] ] } },
{ "type": "Feature", "properties": { "Store_Name": "SAFEWAY  1965", "Longitude": -122.26834, "Latitude": 47.51992, "Address": "9262 Rainier Ave S", "Address Li": null, "Type": "Supermarket", "City": "Seattle", "State": "WA" }, "geometry": { "type": "MultiPoint", "coordinates": [ [ -122.26834, 47.519924 ] ] } },
{ "type": "Feature", "properties": { "Store_Name": "Trader Joes 147", "Longitude": -122.37374, "Latitude": 47.66242, "Address": "4609 14th Ave NW", "Address Li": null, "Type": "Grocery Store", "City": "Seattle", "State": "WA" }, "geometry": { "type": "MultiPoint", "coordinates": [ [ -122.37374, 47.662422 ] ] } },
{ "type": "Feature", "properties": { "Store_Name": "QFC 891", "Longitude": -122.3875, "Latitude": 47.67021, "Address": "5700 24th Ave NW", "Address Li": null, "Type": "Supermarket", "City": "Seattle", "State": "WA" }, "geometry": { "type": "MultiPoint", "coordinates": [ [ -122.3875, 47.670208 ] ] } },
{ "type": "Feature", "properties": { "Store_Name": "SAFEWAY  1477", "Longitude": -122.37389, "Latitude": 47.66863, "Address": "1423 NW Market St", "Address Li": null, "Type": "Supermarket", "City": "Seattle", "State": "WA" }, "geometry": { "type": "MultiPoint", "coordinates": [ [ -122.37389, 47.668633 ] ] } },
{ "type": "Feature", "properties": { "Store_Name": "FRED MEYER 00608", "Longitude": -122.36915, "Latitude": 47.66145, "Address": "915 NW 45th St", "Address Li": null, "Type": "Supermarket", "City": "Seattle", "State": "WA" }, "geometry": { "type": "MultiPoint", "coordinates": [ [ -122.36915, 47.661453 ] ] } },
{ "type": "Feature", "properties": { "Store_Name": "EAST YESLER GROCERY", "Longitude": -122.30761, "Latitude": 47.60175, "Address": "1902 E Yesler Way", "Address Li": "Apt 7", "Type": "Grocery Store", "City": "Seattle", "State": "WA" }, "geometry": { "type": "MultiPoint", "coordinates": [ [ -122.30761, 47.601749 ] ] } },
{ "type": "Feature", "properties": { "Store_Name": "Beacon Hill Market", "Longitude": -122.31339, "Latitude": 47.5806, "Address": "2500 Beacon Ave S", "Address Li": null, "Type": "Grocery Store", "City": "Seattle", "State": "WA" }, "geometry": { "type": "MultiPoint", "coordinates": [ [ -122.31339, 47.580601 ] ] } },
{ "type": "Feature", "properties": { "Store_Name": "HILLTOP RED APPLE MARKET", "Longitude": -122.31225, "Latitude": 47.57931, "Address": "2701 Beacon Ave S", "Address Li": null, "Type": "Grocery Store", "City": "Seattle", "State": "WA" }, "geometry": { "type": "MultiPoint", "coordinates": [ [ -122.31225, 47.579308 ] ] } },
{ "type": "Feature", "properties": { "Store_Name": "Lennys Fruit and Vegetables", "Longitude": -122.35541, "Latitude": 47.70471, "Address": "10410 Greenwood Ave N", "Address Li": "Ste C", "Type": "Grocery Store", "City": "Seattle", "State": "WA" }, "geometry": { "type": "MultiPoint", "coordinates": [ [ -122.35541, 47.704708 ] ] } },
{ "type": "Feature", "properties": { "Store_Name": "Fred Meyer 122", "Longitude": -122.35807, "Latitude": 47.69064, "Address": "100 NW 85th St", "Address Li": null, "Type": "Supermarket", "City": "Seattle", "State": "WA" }, "geometry": { "type": "MultiPoint", "coordinates": [ [ -122.35807, 47.690636 ] ] } },
{ "type": "Feature", "properties": { "Store_Name": "UKRAINE INTERNATIONAL FOOD", "Longitude": -122.35541, "Latitude": 47.70471, "Address": "10410 Greenwood Ave N", "Address Li": null, "Type": "Grocery Store", "City": "Seattle", "State": "WA" }, "geometry": { "type": "MultiPoint", "coordinates": [ [ -122.35541, 47.704708 ] ] } },
{ "type": "Feature", "properties": { "Store_Name": "QFC 872", "Longitude": -122.3626, "Latitude": 47.70152, "Address": "9999 Holman Rd NW", "Address Li": null, "Type": "Supermarket", "City": "Seattle", "State": "WA" }, "geometry": { "type": "MultiPoint", "coordinates": [ [ -122.3626, 47.701515 ] ] } },
{ "type": "Feature", "properties": { "Store_Name": "Uway Grocery", "Longitude": -122.31297, "Latitude": 47.66654, "Address": "5202 University Way Ne", "Address Li": null, "Type": "Grocery Store", "City": "Seattle", "State": "WA" }, "geometry": { "type": "MultiPoint", "coordinates": [ [ -122.31297, 47.666538 ] ] } },
{ "type": "Feature", "properties": { "Store_Name": "Whole Foods Market 10103", "Longitude": -122.31711, "Latitude": 47.67502, "Address": "1026 NE 64th St", "Address Li": null, "Type": "Supermarket", "City": "Seattle", "State": "WA" }, "geometry": { "type": "MultiPoint", "coordinates": [ [ -122.31711, 47.675022 ] ] } },
{ "type": "Feature", "properties": { "Store_Name": "COWEN PARK GROCERY", "Longitude": -122.31499, "Latitude": 47.67137, "Address": "1217 NE Ravenna Blvd", "Address Li": null, "Type": "Grocery Store", "City": "Seattle", "State": "WA" }, "geometry": { "type": "MultiPoint", "coordinates": [ [ -122.31499, 47.671371 ] ] } },
{ "type": "Feature", "properties": { "Store_Name": "Kens QA", "Longitude": -122.36492, "Latitude": 47.63971, "Address": "2400 6th Ave W", "Address Li": null, "Type": "Grocery Store", "City": "Seattle", "State": "WA" }, "geometry": { "type": "MultiPoint", "coordinates": [ [ -122.36492, 47.639709 ] ] } },
{ "type": "Feature", "properties": { "Store_Name": "Whole Foods Market 10275", "Longitude": -122.37625, "Latitude": 47.63704, "Address": "2001 15th Ave W", "Address Li": null, "Type": "Supermarket", "City": "Seattle", "State": "WA" }, "geometry": { "type": "MultiPoint", "coordinates": [ [ -122.37625, 47.637039 ] ] } },
{ "type": "Feature", "properties": { "Store_Name": "QFC 811", "Longitude": -122.37752, "Latitude": 47.64852, "Address": "1600 W Dravus St", "Address Li": null, "Type": "Supermarket", "City": "Seattle", "State": "WA" }, "geometry": { "type": "MultiPoint", "coordinates": [ [ -122.37752, 47.648521 ] ] } },
{ "type": "Feature", "properties": { "Store_Name": "Sam's Club 6687", "Longitude": -122.34498, "Latitude": 47.72781, "Address": "13550 Aurora Ave N", "Address Li": null, "Type": "Hypermarket", "City": "Seattle", "State": "WA" }, "geometry": { "type": "MultiPoint", "coordinates": [ [ -122.34498, 47.727806 ] ] } },
{ "type": "Feature", "properties": { "Store_Name": "Target Store T-1284", "Longitude": -122.32593, "Latitude": 47.70865, "Address": "302 NE Northgate Way", "Address Li": null, "Type": "Hypermarket", "City": "Seattle", "State": "WA" }, "geometry": { "type": "MultiPoint", "coordinates": [ [ -122.32593, 47.708652 ] ] } },
{ "type": "Feature", "properties": { "Store_Name": "Africa Middle East & Indian Spices Grocery", "Longitude": -122.31269, "Latitude": 47.71793, "Address": "12309 15th Ave NE", "Address Li": "Ste C", "Type": "Grocery Store", "City": "Seattle", "State": "WA" }, "geometry": { "type": "MultiPoint", "coordinates": [ [ -122.31269, 47.71793 ] ] } },
{ "type": "Feature", "properties": { "Store_Name": "Pakistani N Indian Grocery", "Longitude": -122.31816, "Latitude": 47.71806, "Address": "12323 Roosevelt Way NE", "Address Li": null, "Type": "Grocery Store", "City": "Seattle", "State": "WA" }, "geometry": { "type": "MultiPoint", "coordinates": [ [ -122.31816, 47.71806 ] ] } },
{ "type": "Feature", "properties": { "Store_Name": "Asian Food Center Seattle Llc", "Longitude": -122.34495, "Latitude": 47.72526, "Address": "13200 Aurora Ave N", "Address Li": null, "Type": "Supermarket", "City": "Seattle", "State": "WA" }, "geometry": { "type": "MultiPoint", "coordinates": [ [ -122.34495, 47.725262 ] ] } },
{ "type": "Feature", "properties": { "Store_Name": "SAFEWAY 1586", "Longitude": -122.31264, "Latitude": 47.71891, "Address": "12318 15th Ave NE", "Address Li": null, "Type": "Supermarket", "City": "Seattle", "State": "WA" }, "geometry": { "type": "MultiPoint", "coordinates": [ [ -122.31264, 47.71891 ] ] } },
{ "type": "Feature", "properties": { "Store_Name": "QFC 866", "Longitude": -122.31781, "Latitude": 47.70938, "Address": "11100 Roosevelt Way NE", "Address Li": null, "Type": "Supermarket", "City": "Seattle", "State": "WA" }, "geometry": { "type": "MultiPoint", "coordinates": [ [ -122.31781, 47.709381 ] ] } },
{ "type": "Feature", "properties": { "Store_Name": "HT Oak Tree Market", "Longitude": -122.3446, "Latitude": 47.70291, "Address": "10008 Aurora Ave N", "Address Li": null, "Type": "Grocery Store", "City": "Seattle", "State": "WA" }, "geometry": { "type": "MultiPoint", "coordinates": [ [ -122.3446, 47.702915 ] ] } },
{ "type": "Feature", "properties": { "Store_Name": "Easy Smoke & Grocery", "Longitude": -122.34474, "Latitude": 47.70419, "Address": "10333 Aurora Ave N", "Address Li": null, "Type": "Grocery Store", "City": "Seattle", "State": "WA" }, "geometry": { "type": "MultiPoint", "coordinates": [ [ -122.34474, 47.704189 ] ] } },
{ "type": "Feature", "properties": { "Store_Name": "Crown Hill Grocery Outlet", "Longitude": -122.37672, "Latitude": 47.69253, "Address": "8700 15th Ave NW", "Address Li": null, "Type": "Grocery Store", "City": "Seattle", "State": "WA" }, "geometry": { "type": "MultiPoint", "coordinates": [ [ -122.37672, 47.692535 ] ] } },
{ "type": "Feature", "properties": { "Store_Name": "Hung Long Asian Market", "Longitude": -122.31216, "Latitude": 47.70117, "Address": "9988 15th Ave SW", "Address Li": "Ste K", "Type": "Supermarket", "City": "Seattle", "State": "WA" }, "geometry": { "type": "MultiPoint", "coordinates": [ [ -122.31216, 47.701172 ] ] } },
{ "type": "Feature", "properties": { "Store_Name": "Puget Consumers Co-op 14", "Longitude": -122.32365, "Latitude": 47.68, "Address": "450 NE 71st St", "Address Li": null, "Type": "Supermarket", "City": "Seattle", "State": "WA" }, "geometry": { "type": "MultiPoint", "coordinates": [ [ -122.32365, 47.679996 ] ] } },
{ "type": "Feature", "properties": { "Store_Name": "SAFEWAY  1550", "Longitude": -122.31745, "Latitude": 47.68222, "Address": "7300 Roosevelt Way NE", "Address Li": null, "Type": "Supermarket", "City": "Seattle", "State": "WA" }, "geometry": { "type": "MultiPoint", "coordinates": [ [ -122.31745, 47.682217 ] ] } },
{ "type": "Feature", "properties": { "Store_Name": "METROPOLITAN MARKET #156", "Longitude": -122.28478, "Latitude": 47.66798, "Address": "5250 40th Ave NE", "Address Li": null, "Type": "Supermarket", "City": "Seattle", "State": "WA" }, "geometry": { "type": "MultiPoint", "coordinates": [ [ -122.28478, 47.66798 ] ] } },
{ "type": "Feature", "properties": { "Store_Name": "QFC 869", "Longitude": -122.33639, "Latitude": 47.66206, "Address": "1801 N 46th St", "Address Li": null, "Type": "Supermarket", "City": "Seattle", "State": "WA" }, "geometry": { "type": "MultiPoint", "coordinates": [ [ -122.33639, 47.662064 ] ] } },
{ "type": "Feature", "properties": { "Store_Name": "Albertsons 3408", "Longitude": -122.3983, "Latitude": 47.64217, "Address": "2550 32nd Ave W", "Address Li": null, "Type": "Grocery Store", "City": "Seattle", "State": "WA" }, "geometry": { "type": "MultiPoint", "coordinates": [ [ -122.3983, 47.64217 ] ] } },
{ "type": "Feature", "properties": { "Store_Name": "Metropolitan Market - Magnolia 161", "Longitude": -122.40083, "Latitude": 47.65463, "Address": "3830 34th Ave W", "Address Li": null, "Type": "Supermarket", "City": "Seattle", "State": "WA" }, "geometry": { "type": "MultiPoint", "coordinates": [ [ -122.40083, 47.654633 ] ] } },
{ "type": "Feature", "properties": { "Store_Name": "Metropolitan Market 157", "Longitude": -122.35535, "Latitude": 47.62462, "Address": "100 Mercer St", "Address Li": null, "Type": "Supermarket", "City": "Seattle", "State": "WA" }, "geometry": { "type": "MultiPoint", "coordinates": [ [ -122.35535, 47.624622 ] ] } },
{ "type": "Feature", "properties": { "Store_Name": "SAFEWAY  1885", "Longitude": -122.35799, "Latitude": 47.62428, "Address": "516 1st Ave W", "Address Li": null, "Type": "Supermarket", "City": "Seattle", "State": "WA" }, "geometry": { "type": "MultiPoint", "coordinates": [ [ -122.35799, 47.624279 ] ] } },
{ "type": "Feature", "properties": { "Store_Name": "City Foods 1", "Longitude": -122.34596, "Latitude": 47.61779, "Address": "2522 5th Ave", "Address Li": null, "Type": "Supermarket", "City": "Seattle", "State": "WA" }, "geometry": { "type": "MultiPoint", "coordinates": [ [ -122.34596, 47.617794 ] ] } },
{ "type": "Feature", "properties": { "Store_Name": "CITY MARKET", "Longitude": -122.32674, "Latitude": 47.61702, "Address": "1722 Bellevue Ave", "Address Li": null, "Type": "Grocery Store", "City": "Seattle", "State": "WA" }, "geometry": { "type": "MultiPoint", "coordinates": [ [ -122.32674, 47.61702 ] ] } },
{ "type": "Feature", "properties": { "Store_Name": "Pike Grocery", "Longitude": -122.32946, "Latitude": 47.6132, "Address": "1023 Pike St", "Address Li": null, "Type": "Grocery Store", "City": "Seattle", "State": "WA" }, "geometry": { "type": "MultiPoint", "coordinates": [ [ -122.32946, 47.613201 ] ] } },
{ "type": "Feature", "properties": { "Store_Name": "QFC 847", "Longitude": -122.32084, "Latitude": 47.61327, "Address": "1401 Broadway", "Address Li": null, "Type": "Supermarket", "City": "Seattle", "State": "WA" }, "geometry": { "type": "MultiPoint", "coordinates": [ [ -122.32084, 47.61327 ] ] } },
{ "type": "Feature", "properties": { "Store_Name": "Safeway 2932", "Longitude": -122.38654, "Latitude": 47.58066, "Address": "2622 California Ave SW", "Address Li": null, "Type": "Supermarket", "City": "Seattle", "State": "WA" }, "geometry": { "type": "MultiPoint", "coordinates": [ [ -122.38654, 47.580658 ] ] } },
{ "type": "Feature", "properties": { "Store_Name": "Puget Consumers Co-op 6", "Longitude": -122.38673, "Latitude": 47.57789, "Address": "2749 California Ave SW", "Address Li": null, "Type": "Supermarket", "City": "Seattle", "State": "WA" }, "geometry": { "type": "MultiPoint", "coordinates": [ [ -122.38673, 47.577892 ] ] } },
{ "type": "Feature", "properties": { "Store_Name": "Noah's Grocery", "Longitude": -122.27069, "Latitude": 47.56043, "Address": "4700 50th Ave S", "Address Li": null, "Type": "Grocery Store", "City": "Seattle", "State": "WA" }, "geometry": { "type": "MultiPoint", "coordinates": [ [ -122.27069, 47.560429 ] ] } },
{ "type": "Feature", "properties": { "Store_Name": "West Seattle Produce Company", "Longitude": -122.38142, "Latitude": 47.56062, "Address": "4722 Fauntleroy Way SW", "Address Li": null, "Type": "Grocery Store", "City": "Seattle", "State": "WA" }, "geometry": { "type": "MultiPoint", "coordinates": [ [ -122.38142, 47.560619 ] ] } },
{ "type": "Feature", "properties": { "Store_Name": "SAFEWAY  1062", "Longitude": -122.38542, "Latitude": 47.56011, "Address": "4754 42nd Ave SW", "Address Li": null, "Type": "Supermarket", "City": "Seattle", "State": "WA" }, "geometry": { "type": "MultiPoint", "coordinates": [ [ -122.38542, 47.560108 ] ] } },
{ "type": "Feature", "properties": { "Store_Name": "Lake City Grocery Outlet", "Longitude": -122.29527, "Latitude": 47.72111, "Address": "3020 Ne 127th St", "Address Li": null, "Type": "Grocery Store", "City": "Seattle", "State": "WA" }, "geometry": { "type": "MultiPoint", "coordinates": [ [ -122.29527, 47.721115 ] ] } },
{ "type": "Feature", "properties": { "Store_Name": "FRED MEYER 00179", "Longitude": -122.29309, "Latitude": 47.7229, "Address": "13000 Lake City Way NE", "Address Li": null, "Type": "Supermarket", "City": "Seattle", "State": "WA" }, "geometry": { "type": "MultiPoint", "coordinates": [ [ -122.29309, 47.7229 ] ] } },
{ "type": "Feature", "properties": { "Store_Name": "SAFEWAY  1845", "Longitude": -122.35527, "Latitude": 47.69263, "Address": "8704 Greenwood Ave N", "Address Li": null, "Type": "Supermarket", "City": "Seattle", "State": "WA" }, "geometry": { "type": "MultiPoint", "coordinates": [ [ -122.35527, 47.692631 ] ] } },
{ "type": "Feature", "properties": { "Store_Name": "Whole Foods Market 10216", "Longitude": -122.33833, "Latitude": 47.61802, "Address": "2210 Westlake Ave", "Address Li": null, "Type": "Supermarket", "City": "Seattle", "State": "WA" }, "geometry": { "type": "MultiPoint", "coordinates": [ [ -122.33833, 47.618015 ] ] } },
{ "type": "Feature", "properties": { "Store_Name": "QFC 873", "Longitude": -122.29067, "Latitude": 47.68967, "Address": "8400 35th Ave NE", "Address Li": null, "Type": "Supermarket", "City": "Seattle", "State": "WA" }, "geometry": { "type": "MultiPoint", "coordinates": [ [ -122.29067, 47.689671 ] ] } },
{ "type": "Feature", "properties": { "Store_Name": "SAFEWAY  1143", "Longitude": -122.3767, "Latitude": 47.68951, "Address": "8340 15th Ave NW", "Address Li": null, "Type": "Supermarket", "City": "Seattle", "State": "WA" }, "geometry": { "type": "MultiPoint", "coordinates": [ [ -122.3767, 47.68951 ] ] } },
{ "type": "Feature", "properties": { "Store_Name": "Mont's Market", "Longitude": -122.30203, "Latitude": 47.63995, "Address": "2350 24th Ave E", "Address Li": null, "Type": "Grocery Store", "City": "Seattle", "State": "WA" }, "geometry": { "type": "MultiPoint", "coordinates": [ [ -122.30203, 47.63995 ] ] } },
{ "type": "Feature", "properties": { "Store_Name": "QFC 881", "Longitude": -122.34715, "Latitude": 47.62458, "Address": "500 Mercer St", "Address Li": "Ste C101", "Type": "Supermarket", "City": "Seattle", "State": "WA" }, "geometry": { "type": "MultiPoint", "coordinates": [ [ -122.34715, 47.624577 ] ] } },
{ "type": "Feature", "properties": { "Store_Name": "Central Co-op", "Longitude": -122.31126, "Latitude": 47.61515, "Address": "1600 E Madison St", "Address Li": null, "Type": "Grocery Store", "City": "Seattle", "State": "WA" }, "geometry": { "type": "MultiPoint", "coordinates": [ [ -122.31126, 47.615154 ] ] } },
{ "type": "Feature", "properties": { "Store_Name": "TRADER JOE'S 130", "Longitude": -122.30961, "Latitude": 47.61584, "Address": "1700 E Madison St", "Address Li": null, "Type": "Grocery Store", "City": "Seattle", "State": "WA" }, "geometry": { "type": "MultiPoint", "coordinates": [ [ -122.30961, 47.615837 ] ] } },
{ "type": "Feature", "properties": { "Store_Name": "Kress IGA Supermaket", "Longitude": -122.33723, "Latitude": 47.60897, "Address": "1427 3rd Ave", "Address Li": null, "Type": "Supermarket", "City": "Seattle", "State": "WA" }, "geometry": { "type": "MultiPoint", "coordinates": [ [ -122.33723, 47.608967 ] ] } },
{ "type": "Feature", "properties": { "Store_Name": "Target Store T-2786", "Longitude": -122.33839, "Latitude": 47.60862, "Address": "1401 2nd Ave", "Address Li": null, "Type": "Hypermarket", "City": "Seattle", "State": "WA" }, "geometry": { "type": "MultiPoint", "coordinates": [ [ -122.33839, 47.60862 ] ] } },
{ "type": "Feature", "properties": { "Store_Name": "ROTARY GROCERY", "Longitude": -122.34068, "Latitude": 47.6087, "Address": "1503 Pike Pl", "Address Li": null, "Type": "Grocery Store", "City": "Seattle", "State": "WA" }, "geometry": { "type": "MultiPoint", "coordinates": [ [ -122.34068, 47.608704 ] ] } },
{ "type": "Feature", "properties": { "Store_Name": "Stockbox First Hill Grocery", "Longitude": -122.32465, "Latitude": 47.60553, "Address": "901 James St", "Address Li": null, "Type": "Grocery Store", "City": "Seattle", "State": "WA" }, "geometry": { "type": "MultiPoint", "coordinates": [ [ -122.32465, 47.605526 ] ] } },
{ "type": "Feature", "properties": { "Store_Name": "South Sea Grocery", "Longitude": -122.31995, "Latitude": 47.60617, "Address": "917 E Jefferson St", "Address Li": null, "Type": "Grocery Store", "City": "Seattle", "State": "WA" }, "geometry": { "type": "MultiPoint", "coordinates": [ [ -122.31995, 47.606171 ] ] } },
{ "type": "Feature", "properties": { "Store_Name": "Bao An Herbs & Grocery Company", "Longitude": -122.32352, "Latitude": 47.5983, "Address": "705 S King St", "Address Li": null, "Type": "Grocery Store", "City": "Seattle", "State": "WA" }, "geometry": { "type": "MultiPoint", "coordinates": [ [ -122.32352, 47.598297 ] ] } },
{ "type": "Feature", "properties": { "Store_Name": "Khang Hoa Duong And Grocery", "Longitude": -122.31699, "Latitude": 47.59919, "Address": "1201 S Jackson St", "Address Li": null, "Type": "Grocery Store", "City": "Seattle", "State": "WA" }, "geometry": { "type": "MultiPoint", "coordinates": [ [ -122.31699, 47.599194 ] ] } },
{ "type": "Feature", "properties": { "Store_Name": "UWAJIMAYA", "Longitude": -122.32758, "Latitude": 47.5975, "Address": "600 FIFTH AVE S", "Address Li": null, "Type": "Grocery Store", "City": "SEATTLE", "State": "WA" }, "geometry": { "type": "MultiPoint", "coordinates": [ [ -122.32758, 47.5975 ] ] } },
{ "type": "Feature", "properties": { "Store_Name": "Rising Produce", "Longitude": -122.31954, "Latitude": 47.59828, "Address": "1003 S King St", "Address Li": null, "Type": "Grocery Store", "City": "Seattle", "State": "WA" }, "geometry": { "type": "MultiPoint", "coordinates": [ [ -122.31954, 47.598282 ] ] } },
{ "type": "Feature", "properties": { "Store_Name": "DONG HING MARKET", "Longitude": -122.3194, "Latitude": 47.59915, "Address": "1001 S Jackson St", "Address Li": null, "Type": "Grocery Store", "City": "Seattle", "State": "WA" }, "geometry": { "type": "MultiPoint", "coordinates": [ [ -122.3194, 47.599152 ] ] } },
{ "type": "Feature", "properties": { "Store_Name": "VIET WAH SUPERMARKET", "Longitude": -122.31841, "Latitude": 47.59923, "Address": "1032 S Jackson St", "Address Li": null, "Type": "Supermarket", "City": "Seattle", "State": "WA" }, "geometry": { "type": "MultiPoint", "coordinates": [ [ -122.31841, 47.599228 ] ] } },
{ "type": "Feature", "properties": { "Store_Name": "Costco Wholesale 0001", "Longitude": -122.32949, "Latitude": 47.56377, "Address": "4401 4th Ave S", "Address Li": null, "Type": "Supermarket", "City": "Seattle", "State": "WA" }, "geometry": { "type": "MultiPoint", "coordinates": [ [ -122.32949, 47.56377 ] ] } },
{ "type": "Feature", "properties": { "Store_Name": "4th Avegrocery Outlet", "Longitude": -122.32902, "Latitude": 47.588, "Address": "1702 4th Ave S", "Address Li": null, "Type": "Grocery Store", "City": "Seattle", "State": "WA" }, "geometry": { "type": "MultiPoint", "coordinates": [ [ -122.32902, 47.587997 ] ] } },
{ "type": "Feature", "properties": { "Store_Name": "Afrik Grocery & Coffee Shop", "Longitude": -122.29379, "Latitude": 47.56177, "Address": "4610 Martin Luther King Jr Way S", "Address Li": null, "Type": "Grocery Store", "City": "Seattle", "State": "WA" }, "geometry": { "type": "MultiPoint", "coordinates": [ [ -122.29379, 47.561768 ] ] } },
{ "type": "Feature", "properties": { "Store_Name": "Asmara Shikor Wholesale & Retail", "Longitude": -122.29509, "Latitude": 47.56324, "Address": "4437 Martin Luther King Jr Way S", "Address Li": null, "Type": "Supermarket", "City": "Seattle", "State": "WA" }, "geometry": { "type": "MultiPoint", "coordinates": [ [ -122.29509, 47.56324 ] ] } },
{ "type": "Feature", "properties": { "Store_Name": "Shiil Grocery & Halal Meat", "Longitude": -122.29467, "Latitude": 47.56256, "Address": "4505 Martin Luther King Jr Way S", "Address Li": null, "Type": "Grocery Store", "City": "Seattle", "State": "WA" }, "geometry": { "type": "MultiPoint", "coordinates": [ [ -122.29467, 47.562561 ] ] } },
{ "type": "Feature", "properties": { "Store_Name": "QFC 849", "Longitude": -122.29887, "Latitude": 47.57914, "Address": "2707 Rainier Ave S", "Address Li": null, "Type": "Supermarket", "City": "Seattle", "State": "WA" }, "geometry": { "type": "MultiPoint", "coordinates": [ [ -122.29887, 47.57914 ] ] } },
{ "type": "Feature", "properties": { "Store_Name": "MEKONG RAINIER SUPERMARKET", "Longitude": -122.29389, "Latitude": 47.57277, "Address": "3400 Rainier Ave S", "Address Li": null, "Type": "Supermarket", "City": "Seattle", "State": "WA" }, "geometry": { "type": "MultiPoint", "coordinates": [ [ -122.29389, 47.572769 ] ] } },
{ "type": "Feature", "properties": { "Store_Name": "SAFEWAY 1508", "Longitude": -122.29023, "Latitude": 47.56927, "Address": "3820 Rainier Ave S", "Address Li": null, "Type": "Supermarket", "City": "Seattle", "State": "WA" }, "geometry": { "type": "MultiPoint", "coordinates": [ [ -122.29023, 47.569267 ] ] } },
{ "type": "Feature", "properties": { "Store_Name": "QFC 883", "Longitude": -122.38541, "Latitude": 47.56195, "Address": "4550 42nd Ave SW", "Address Li": null, "Type": "Supermarket", "City": "Seattle", "State": "WA" }, "geometry": { "type": "MultiPoint", "coordinates": [ [ -122.38541, 47.561954 ] ] } },
{ "type": "Feature", "properties": { "Store_Name": "Trader Joes 157", "Longitude": -122.38088, "Latitude": 47.5617, "Address": "4545 Fauntleroy Way SW", "Address Li": null, "Type": "Grocery Store", "City": "Seattle", "State": "WA" }, "geometry": { "type": "MultiPoint", "coordinates": [ [ -122.38088, 47.561703 ] ] } },
{ "type": "Feature", "properties": { "Store_Name": "East African Grocery", "Longitude": -122.28182, "Latitude": 47.53801, "Address": "7135 Martin Luther King Jr Way S", "Address Li": null, "Type": "Grocery Store", "City": "Seattle", "State": "WA" }, "geometry": { "type": "MultiPoint", "coordinates": [ [ -122.28182, 47.538013 ] ] } },
{ "type": "Feature", "properties": { "Store_Name": "SAFEWAY  0219", "Longitude": -122.28332, "Latitude": 47.53707, "Address": "3900 S Othello St", "Address Li": null, "Type": "Supermarket", "City": "Seattle", "State": "WA" }, "geometry": { "type": "MultiPoint", "coordinates": [ [ -122.28332, 47.537067 ] ] } },
{ "type": "Feature", "properties": { "Store_Name": "Target Store T-0637", "Longitude": -122.3684, "Latitude": 47.52107, "Address": "2800 SW Barton St", "Address Li": null, "Type": "Hypermarket", "City": "Seattle", "State": "WA" }, "geometry": { "type": "MultiPoint", "coordinates": [ [ -122.3684, 47.521069 ] ] } },
{ "type": "Feature", "properties": { "Store_Name": "QFC 825", "Longitude": -122.36692, "Latitude": 47.52108, "Address": "2600 SW Barton St", "Address Li": "Ste B1", "Type": "Supermarket", "City": "Seattle", "State": "WA" }, "geometry": { "type": "MultiPoint", "coordinates": [ [ -122.36692, 47.521076 ] ] } },
{ "type": "Feature", "properties": { "Store_Name": "Morningside Grocery", "Longitude": -122.29054, "Latitude": 47.69505, "Address": "9118 35th Ave NE", "Address Li": null, "Type": "Grocery Store", "City": "Seattle", "State": "WA" }, "geometry": { "type": "MultiPoint", "coordinates": [ [ -122.29054, 47.695049 ] ] } },
{ "type": "Feature", "properties": { "Store_Name": "BERT'S RED APPLE MARKET", "Longitude": -122.27968, "Latitude": 47.63481, "Address": "1801 41st Ave E", "Address Li": null, "Type": "Grocery Store", "City": "Seattle", "State": "WA" }, "geometry": { "type": "MultiPoint", "coordinates": [ [ -122.27968, 47.634808 ] ] } },
{ "type": "Feature", "properties": { "Store_Name": "SAFEWAY  1551", "Longitude": -122.31392, "Latitude": 47.61997, "Address": "1410 E John St", "Address Li": null, "Type": "Supermarket", "City": "Seattle", "State": "WA" }, "geometry": { "type": "MultiPoint", "coordinates": [ [ -122.31392, 47.619968 ] ] } },
{ "type": "Feature", "properties": { "Store_Name": "Delridge Grocery Cooperative", "Longitude": -122.36227, "Latitude": 47.56667, "Address": "4058 23rd Ave Sw", "Address Li": null, "Type": "Grocery Store", "City": "Seattle", "State": "WA" }, "geometry": { "type": "MultiPoint", "coordinates": [ [ -122.36227, 47.566666 ] ] } },
{ "type": "Feature", "properties": { "Store_Name": "Puget Consumers Co-op 5", "Longitude": -122.28485, "Latitude": 47.6761, "Address": "6514 40th Ave NE", "Address Li": null, "Type": "Supermarket", "City": "Seattle", "State": "WA" }, "geometry": { "type": "MultiPoint", "coordinates": [ [ -122.28485, 47.676098 ] ] } },
{ "type": "Feature", "properties": { "Store_Name": "Rainier 99cents Plus Store & Grocery", "Longitude": -122.26996, "Latitude": 47.53206, "Address": "7820 Rainier Ave S", "Address Li": null, "Type": "Grocery Store", "City": "Seattle", "State": "WA" }, "geometry": { "type": "MultiPoint", "coordinates": [ [ -122.26996, 47.532059 ] ] } },
{ "type": "Feature", "properties": { "Store_Name": "SAFEWAY 0368", "Longitude": -122.3569, "Latitude": 47.63734, "Address": "2100 Queen Anne Ave N", "Address Li": null, "Type": "Supermarket", "City": "Seattle", "State": "WA" }, "geometry": { "type": "MultiPoint", "coordinates": [ [ -122.3569, 47.637341 ] ] } },
{ "type": "Feature", "properties": { "Store_Name": "TRADER JOES  135", "Longitude": -122.35854, "Latitude": 47.63238, "Address": "112 W Galer St", "Address Li": null, "Type": "Grocery Store", "City": "Seattle", "State": "WA" }, "geometry": { "type": "MultiPoint", "coordinates": [ [ -122.35854, 47.632378 ] ] } },
{ "type": "Feature", "properties": { "Store_Name": "HOWELL STREET GROCERY", "Longitude": -122.32437, "Latitude": 47.61777, "Address": "600 E Howell St", "Address Li": null, "Type": "Grocery Store", "City": "Seattle", "State": "WA" }, "geometry": { "type": "MultiPoint", "coordinates": [ [ -122.32437, 47.617767 ] ] } },
{ "type": "Feature", "properties": { "Store_Name": "Carleton Avenue Grocery", "Longitude": -122.32122, "Latitude": 47.54411, "Address": "6601 Carleton Ave S", "Address Li": null, "Type": "Grocery Store", "City": "Seattle", "State": "WA" }, "geometry": { "type": "MultiPoint", "coordinates": [ [ -122.32122, 47.544109 ] ] } },
{ "type": "Feature", "properties": { "Store_Name": "Ken's Market", "Longitude": -122.35541, "Latitude": 47.68122, "Address": "7231 Greenwood Ave N", "Address Li": null, "Type": "Grocery Store", "City": "Seattle", "State": "WA" }, "geometry": { "type": "MultiPoint", "coordinates": [ [ -122.35541, 47.681221 ] ] } }
]
}
